[{"nome":"Abriola","codice":"076001","regione":"basilicata","provincia":"potenza","codiceCatastale":"A013","cap":"85010","coordinate":{"lat":40.5080717,"lng":15.8137466}},{"nome":"Accettura","codice":"077001","regione":"basilicata","provincia":"matera","codiceCatastale":"A017","cap":"75011","coordinate":{"lat":40.492037,"lng":16.1589259}},{"nome":"Acerenza","codice":"076002","regione":"basilicata","provincia":"potenza","codiceCatastale":"A020","cap":"85011","coordinate":{"lat":40.7931277,"lng":15.9375128}},{"nome":"Albano di Lucania","codice":"076003","regione":"basilicata","provincia":"potenza","codiceCatastale":"A131","cap":"85010","coordinate":{"lat":40.5856296,"lng":16.037037}},{"nome":"Aliano","codice":"077002","regione":"basilicata","provincia":"matera","codiceCatastale":"A196","cap":"75010","coordinate":{"lat":40.313787,"lng":16.229853}},{"nome":"Anzi","codice":"076004","regione":"basilicata","provincia":"potenza","codiceCatastale":"A321","cap":"85010","coordinate":{"lat":40.5176666,"lng":15.9254814}},{"nome":"Armento","codice":"076005","regione":"basilicata","provincia":"potenza","codiceCatastale":"A415","cap":"85010","coordinate":{"lat":40.3077994,"lng":16.0654712}},{"nome":"Atella","codice":"076006","regione":"basilicata","provincia":"potenza","codiceCatastale":"A482","cap":"85020","coordinate":{"lat":40.87681,"lng":15.651314}},{"nome":"Avigliano","codice":"076007","regione":"basilicata","provincia":"potenza","codiceCatastale":"A519","cap":"85021","coordinate":{"lat":40.7307962,"lng":15.7212777}},{"nome":"Balvano","codice":"076008","regione":"basilicata","provincia":"potenza","codiceCatastale":"A604","cap":"85050","coordinate":{"lat":40.6514259,"lng":15.515}},{"nome":"Banzi","codice":"076009","regione":"basilicata","provincia":"potenza","codiceCatastale":"A612","cap":"85010","coordinate":{"lat":40.8617407,"lng":16.0139259}},{"nome":"Baragiano","codice":"076010","regione":"basilicata","provincia":"potenza","codiceCatastale":"A615","cap":"85050","coordinate":{"lat":40.6803148,"lng":15.5953148}},{"nome":"Barile","codice":"076011","regione":"basilicata","provincia":"potenza","codiceCatastale":"A666","cap":"85022","coordinate":{"lat":40.9471208,"lng":15.6732351}},{"nome":"Bella","codice":"076012","regione":"basilicata","provincia":"potenza","codiceCatastale":"A743","cap":"85051","coordinate":{"lat":40.759359,"lng":15.539424}},{"nome":"Bernalda","codice":"077003","regione":"basilicata","provincia":"matera","codiceCatastale":"A801","cap":"75012","coordinate":{"lat":40.4139259,"lng":16.6928148}},{"nome":"Brienza","codice":"076013","regione":"basilicata","provincia":"potenza","codiceCatastale":"B173","cap":"85050","coordinate":{"lat":40.4788644,"lng":15.6308375}},{"nome":"Brindisi Montagna","codice":"076014","regione":"basilicata","provincia":"potenza","codiceCatastale":"B181","cap":"85010","coordinate":{"lat":40.6106727,"lng":15.940662}},{"nome":"Calciano","codice":"077004","regione":"basilicata","provincia":"matera","codiceCatastale":"B391","cap":"75010","coordinate":{"lat":40.5878273,"lng":16.1921356}},{"nome":"Calvello","codice":"076015","regione":"basilicata","provincia":"potenza","codiceCatastale":"B440","cap":"85010","coordinate":{"lat":40.477037,"lng":15.8495555}},{"nome":"Calvera","codice":"076016","regione":"basilicata","provincia":"potenza","codiceCatastale":"B443","cap":"85030","coordinate":{"lat":40.148938,"lng":16.1436965}},{"nome":"Campomaggiore","codice":"076017","regione":"basilicata","provincia":"potenza","codiceCatastale":"B549","cap":"85010","coordinate":{"lat":40.56832,"lng":16.07431}},{"nome":"Cancellara","codice":"076018","regione":"basilicata","provincia":"potenza","codiceCatastale":"B580","cap":"85010","coordinate":{"lat":40.7312592,"lng":15.9267407}},{"nome":"Carbone","codice":"076019","regione":"basilicata","provincia":"potenza","codiceCatastale":"B743","cap":"85030","coordinate":{"lat":40.1434444,"lng":16.0903333}},{"nome":"Castelgrande","codice":"076021","regione":"basilicata","provincia":"potenza","codiceCatastale":"C120","cap":"85050","coordinate":{"lat":40.7857124,"lng":15.4296582}},{"nome":"Castelluccio Inferiore","codice":"076022","regione":"basilicata","provincia":"potenza","codiceCatastale":"C199","cap":"85040","coordinate":{"lat":40.0047583,"lng":15.9807855}},{"nome":"Castelluccio Superiore","codice":"076023","regione":"basilicata","provincia":"potenza","codiceCatastale":"C201","cap":"85040","coordinate":{"lat":40.0114259,"lng":15.9759444}},{"nome":"Castelmezzano","codice":"076024","regione":"basilicata","provincia":"potenza","codiceCatastale":"C209","cap":"85010","coordinate":{"lat":40.5291953,"lng":16.0450523}},{"nome":"Castelsaraceno","codice":"076025","regione":"basilicata","provincia":"potenza","codiceCatastale":"C271","cap":"85031","coordinate":{"lat":40.1648703,"lng":15.9928333}},{"nome":"Castronuovo di Sant'Andrea","codice":"076026","regione":"basilicata","provincia":"potenza","codiceCatastale":"C345","cap":"85030","coordinate":{"lat":40.189369,"lng":16.1852579}},{"nome":"Cersosimo","codice":"076027","regione":"basilicata","provincia":"potenza","codiceCatastale":"C539","cap":"85030","coordinate":{"lat":40.0480699,"lng":16.3508737}},{"nome":"Chiaromonte","codice":"076028","regione":"basilicata","provincia":"potenza","codiceCatastale":"C619","cap":"85032","coordinate":{"lat":40.1250185,"lng":16.2156296}},{"nome":"Cirigliano","codice":"077005","regione":"basilicata","provincia":"matera","codiceCatastale":"C723","cap":"75010","coordinate":{"lat":40.3949916,"lng":16.1728369}},{"nome":"Colobraro","codice":"077006","regione":"basilicata","provincia":"matera","codiceCatastale":"C888","cap":"75021","coordinate":{"lat":40.1884629,"lng":16.4259629}},{"nome":"Corleto Perticara","codice":"076029","regione":"basilicata","provincia":"potenza","codiceCatastale":"D010","cap":"85012","coordinate":{"lat":40.3843104,"lng":16.0410727}},{"nome":"Craco","codice":"077007","regione":"basilicata","provincia":"matera","codiceCatastale":"D128","cap":"75010","coordinate":{"lat":40.3802317,"lng":16.4363063}},{"nome":"Episcopia","codice":"076030","regione":"basilicata","provincia":"potenza","codiceCatastale":"D414","cap":"85033","coordinate":{"lat":40.0759629,"lng":16.099074}},{"nome":"Fardella","codice":"076031","regione":"basilicata","provincia":"potenza","codiceCatastale":"D497","cap":"85034","coordinate":{"lat":40.1147543,"lng":16.1702058}},{"nome":"Ferrandina","codice":"077008","regione":"basilicata","provincia":"matera","codiceCatastale":"D547","cap":"75013","coordinate":{"lat":40.5023703,"lng":16.4556481}},{"nome":"Filiano","codice":"076032","regione":"basilicata","provincia":"potenza","codiceCatastale":"D593","cap":"85020","coordinate":{"lat":40.8115204,"lng":15.706719}},{"nome":"Forenza","codice":"076033","regione":"basilicata","provincia":"potenza","codiceCatastale":"D696","cap":"85023","coordinate":{"lat":40.8598703,"lng":15.8573518}},{"nome":"Francavilla in Sinni","codice":"076034","regione":"basilicata","provincia":"potenza","codiceCatastale":"D766","cap":"85034","coordinate":{"lat":40.0801666,"lng":16.2042407}},{"nome":"Gallicchio","codice":"076035","regione":"basilicata","provincia":"potenza","codiceCatastale":"D876","cap":"85010","coordinate":{"lat":40.289289,"lng":16.1389587}},{"nome":"Garaguso","codice":"077009","regione":"basilicata","provincia":"matera","codiceCatastale":"D909","cap":"75010","coordinate":{"lat":40.5495555,"lng":16.2281481}},{"nome":"Genzano di Lucania","codice":"076036","regione":"basilicata","provincia":"potenza","codiceCatastale":"D971","cap":"85013","coordinate":{"lat":40.8489074,"lng":16.0317407}},{"nome":"Ginestra","codice":"076099","regione":"basilicata","provincia":"potenza","codiceCatastale":"E033","cap":"85020","coordinate":{"lat":40.930271,"lng":15.733853}},{"nome":"Gorgoglione","codice":"077010","regione":"basilicata","provincia":"matera","codiceCatastale":"E093","cap":"75010","coordinate":{"lat":40.393661,"lng":16.1441209}},{"nome":"Grassano","codice":"077011","regione":"basilicata","provincia":"matera","codiceCatastale":"E147","cap":"75014","coordinate":{"lat":40.6326921,"lng":16.2835136}},{"nome":"Grottole","codice":"077012","regione":"basilicata","provincia":"matera","codiceCatastale":"E213","cap":"75010","coordinate":{"lat":40.6020728,"lng":16.380694}},{"nome":"Grumento Nova","codice":"076037","regione":"basilicata","provincia":"potenza","codiceCatastale":"E221","cap":"85050","coordinate":{"lat":40.2839259,"lng":15.8897037}},{"nome":"Guardia Perticara","codice":"076038","regione":"basilicata","provincia":"potenza","codiceCatastale":"E246","cap":"85010","coordinate":{"lat":40.3582906,"lng":16.1004019}},{"nome":"Irsina","codice":"077013","regione":"basilicata","provincia":"matera","codiceCatastale":"E326","cap":"75022","coordinate":{"lat":40.748567,"lng":16.239464}},{"nome":"Lagonegro","codice":"076039","regione":"basilicata","provincia":"potenza","codiceCatastale":"E409","cap":"85042","coordinate":{"lat":40.1293888,"lng":15.7623518}},{"nome":"Latronico","codice":"076040","regione":"basilicata","provincia":"potenza","codiceCatastale":"E474","cap":"85043","coordinate":{"lat":40.0908758,"lng":16.0108532}},{"nome":"Laurenzana","codice":"076041","regione":"basilicata","provincia":"potenza","codiceCatastale":"E482","cap":"85014","coordinate":{"lat":40.458613,"lng":15.971578}},{"nome":"Lauria","codice":"076042","regione":"basilicata","provincia":"potenza","codiceCatastale":"E483","cap":"85044","coordinate":{"lat":40.0478655,"lng":15.837522}},{"nome":"Lavello","codice":"076043","regione":"basilicata","provincia":"potenza","codiceCatastale":"E493","cap":"85024","coordinate":{"lat":41.0467407,"lng":15.7917407}},{"nome":"Maratea","codice":"076044","regione":"basilicata","provincia":"potenza","codiceCatastale":"E919","cap":"85046","coordinate":{"lat":39.9979314,"lng":15.7183069}},{"nome":"Marsico Nuovo","codice":"076045","regione":"basilicata","provincia":"potenza","codiceCatastale":"E976","cap":"85052","coordinate":{"lat":40.4239687,"lng":15.7354613}},{"nome":"Marsicovetere","codice":"076046","regione":"basilicata","provincia":"potenza","codiceCatastale":"E977","cap":"85050","coordinate":{"lat":40.3768529,"lng":15.824098}},{"nome":"Maschito","codice":"076047","regione":"basilicata","provincia":"potenza","codiceCatastale":"F006","cap":"85020","coordinate":{"lat":40.907548,"lng":15.829148}},{"nome":"Matera","codice":"077014","regione":"basilicata","provincia":"matera","codiceCatastale":"F052","cap":"75100","coordinate":{"lat":40.6686534,"lng":16.6060872}},{"nome":"Melfi","codice":"076048","regione":"basilicata","provincia":"potenza","codiceCatastale":"F104","cap":"85025","coordinate":{"lat":40.9975,"lng":15.6523703}},{"nome":"Miglionico","codice":"077015","regione":"basilicata","provincia":"matera","codiceCatastale":"F201","cap":"75010","coordinate":{"lat":40.569378,"lng":16.499631}},{"nome":"Missanello","codice":"076049","regione":"basilicata","provincia":"potenza","codiceCatastale":"F249","cap":"85010","coordinate":{"lat":40.2831481,"lng":16.1668888}},{"nome":"Moliterno","codice":"076050","regione":"basilicata","provincia":"potenza","codiceCatastale":"F295","cap":"85047","coordinate":{"lat":40.2428148,"lng":15.8643888}},{"nome":"Montalbano Jonico","codice":"077016","regione":"basilicata","provincia":"matera","codiceCatastale":"F399","cap":"75023","coordinate":{"lat":40.290875,"lng":16.565786}},{"nome":"Montemilone","codice":"076051","regione":"basilicata","provincia":"potenza","codiceCatastale":"F568","cap":"85020","coordinate":{"lat":41.0311111,"lng":15.9701666}},{"nome":"Montemurro","codice":"076052","regione":"basilicata","provincia":"potenza","codiceCatastale":"F573","cap":"85053","coordinate":{"lat":40.2979814,"lng":15.9922037}},{"nome":"Montescaglioso","codice":"077017","regione":"basilicata","provincia":"matera","codiceCatastale":"F637","cap":"75024","coordinate":{"lat":40.5533251,"lng":16.6679317}},{"nome":"Muro Lucano","codice":"076053","regione":"basilicata","provincia":"potenza","codiceCatastale":"F817","cap":"85054","coordinate":{"lat":40.7536044,"lng":15.486732}},{"nome":"Nemoli","codice":"076054","regione":"basilicata","provincia":"potenza","codiceCatastale":"F866","cap":"85040","coordinate":{"lat":40.0686001,"lng":15.8012836}},{"nome":"Noepoli","codice":"076055","regione":"basilicata","provincia":"potenza","codiceCatastale":"F917","cap":"85035","coordinate":{"lat":40.0878148,"lng":16.3306481}},{"nome":"Nova Siri","codice":"077018","regione":"basilicata","provincia":"matera","codiceCatastale":"A942","cap":"75020","coordinate":{"lat":40.1490311,"lng":16.5413711}},{"nome":"Oliveto Lucano","codice":"077019","regione":"basilicata","provincia":"matera","codiceCatastale":"G037","cap":"75010","coordinate":{"lat":40.5364259,"lng":16.1854814}},{"nome":"Oppido Lucano","codice":"076056","regione":"basilicata","provincia":"potenza","codiceCatastale":"G081","cap":"85015","coordinate":{"lat":40.7628148,"lng":15.9875}},{"nome":"Palazzo San Gervasio","codice":"076057","regione":"basilicata","provincia":"potenza","codiceCatastale":"G261","cap":"85026","coordinate":{"lat":40.931411,"lng":15.985477}},{"nome":"Paterno","codice":"076100","regione":"basilicata","provincia":"potenza","codiceCatastale":"M269","cap":"85050","coordinate":{"lat":40.3793888,"lng":15.7337777}},{"nome":"Pescopagano","codice":"076058","regione":"basilicata","provincia":"potenza","codiceCatastale":"G496","cap":"85020","coordinate":{"lat":40.8360482,"lng":15.3988038}},{"nome":"Picerno","codice":"076059","regione":"basilicata","provincia":"potenza","codiceCatastale":"G590","cap":"85055","coordinate":{"lat":40.641307,"lng":15.642372}},{"nome":"Pietragalla","codice":"076060","regione":"basilicata","provincia":"potenza","codiceCatastale":"G616","cap":"85016","coordinate":{"lat":40.7476515,"lng":15.8804648}},{"nome":"Pietrapertosa","codice":"076061","regione":"basilicata","provincia":"potenza","codiceCatastale":"G623","cap":"85010","coordinate":{"lat":40.5193813,"lng":16.0629292}},{"nome":"Pignola","codice":"076062","regione":"basilicata","provincia":"potenza","codiceCatastale":"G663","cap":"85010","coordinate":{"lat":40.5742407,"lng":15.784074}},{"nome":"Pisticci","codice":"077020","regione":"basilicata","provincia":"matera","codiceCatastale":"G712","cap":"75015","coordinate":{"lat":40.3917147,"lng":16.5545725}},{"nome":"Policoro","codice":"077021","regione":"basilicata","provincia":"matera","codiceCatastale":"G786","cap":"75025","coordinate":{"lat":40.2129679,"lng":16.678339}},{"nome":"Pomarico","codice":"077022","regione":"basilicata","provincia":"matera","codiceCatastale":"G806","cap":"75016","coordinate":{"lat":40.515597,"lng":16.548755}},{"nome":"Potenza","codice":"076063","regione":"basilicata","provincia":"potenza","codiceCatastale":"G942","cap":"85100","coordinate":{"lat":40.6372425,"lng":15.8022214}},{"nome":"Rapolla","codice":"076064","regione":"basilicata","provincia":"potenza","codiceCatastale":"H186","cap":"85027","coordinate":{"lat":40.9767222,"lng":15.6722037}},{"nome":"Rapone","codice":"076065","regione":"basilicata","provincia":"potenza","codiceCatastale":"H187","cap":"85020","coordinate":{"lat":40.8478457,"lng":15.5020201}},{"nome":"Rionero in Vulture","codice":"076066","regione":"basilicata","provincia":"potenza","codiceCatastale":"H307","cap":"85028","coordinate":{"lat":40.9267222,"lng":15.6709629}},{"nome":"Ripacandida","codice":"076067","regione":"basilicata","provincia":"potenza","codiceCatastale":"H312","cap":"85020","coordinate":{"lat":40.9129814,"lng":15.7256296}},{"nome":"Rivello","codice":"076068","regione":"basilicata","provincia":"potenza","codiceCatastale":"H348","cap":"85040","coordinate":{"lat":40.079074,"lng":15.7570555}},{"nome":"Roccanova","codice":"076069","regione":"basilicata","provincia":"potenza","codiceCatastale":"H426","cap":"85036","coordinate":{"lat":40.2131481,"lng":16.204074}},{"nome":"Rotonda","codice":"076070","regione":"basilicata","provincia":"potenza","codiceCatastale":"H590","cap":"85048","coordinate":{"lat":39.9537592,"lng":16.0400185}},{"nome":"Rotondella","codice":"077023","regione":"basilicata","provincia":"matera","codiceCatastale":"H591","cap":"75026","coordinate":{"lat":40.1723518,"lng":16.5264074}},{"nome":"Ruoti","codice":"076071","regione":"basilicata","provincia":"potenza","codiceCatastale":"H641","cap":"85056","coordinate":{"lat":40.7180867,"lng":15.6791967}},{"nome":"Ruvo del Monte","codice":"076072","regione":"basilicata","provincia":"potenza","codiceCatastale":"H646","cap":"85020","coordinate":{"lat":40.8498518,"lng":15.5423703}},{"nome":"Salandra","codice":"077024","regione":"basilicata","provincia":"matera","codiceCatastale":"H687","cap":"75017","coordinate":{"lat":40.5281055,"lng":16.3194597}},{"nome":"San Chirico Nuovo","codice":"076073","regione":"basilicata","provincia":"potenza","codiceCatastale":"H795","cap":"85010","coordinate":{"lat":40.6775,"lng":16.0800185}},{"nome":"San Chirico Raparo","codice":"076074","regione":"basilicata","provincia":"potenza","codiceCatastale":"H796","cap":"85030","coordinate":{"lat":40.1903821,"lng":16.0770673}},{"nome":"San Costantino Albanese","codice":"076075","regione":"basilicata","provincia":"potenza","codiceCatastale":"H808","cap":"85030","coordinate":{"lat":40.0368888,"lng":16.3056481}},{"nome":"San Fele","codice":"076076","regione":"basilicata","provincia":"potenza","codiceCatastale":"H831","cap":"85020","coordinate":{"lat":40.8183699,"lng":15.5401689}},{"nome":"San Giorgio Lucano","codice":"077025","regione":"basilicata","provincia":"matera","codiceCatastale":"H888","cap":"75027","coordinate":{"lat":40.1107746,"lng":16.3875548}},{"nome":"San Martino d'Agri","codice":"076077","regione":"basilicata","provincia":"potenza","codiceCatastale":"H994","cap":"85030","coordinate":{"lat":40.2407962,"lng":16.0539074}},{"nome":"San Mauro Forte","codice":"077026","regione":"basilicata","provincia":"matera","codiceCatastale":"I029","cap":"75010","coordinate":{"lat":40.486728,"lng":16.250589}},{"nome":"San Paolo Albanese","codice":"076020","regione":"basilicata","provincia":"potenza","codiceCatastale":"B906","cap":"85030","coordinate":{"lat":40.0342424,"lng":16.3346232}},{"nome":"San Severino Lucano","codice":"076078","regione":"basilicata","provincia":"potenza","codiceCatastale":"I157","cap":"85030","coordinate":{"lat":40.0218688,"lng":16.1390412}},{"nome":"Sant'Angelo Le Fratte","codice":"076079","regione":"basilicata","provincia":"potenza","codiceCatastale":"I288","cap":"85050","coordinate":{"lat":40.5470494,"lng":15.5598219}},{"nome":"Sant'Arcangelo","codice":"076080","regione":"basilicata","provincia":"potenza","codiceCatastale":"I305","cap":"85037","coordinate":{"lat":40.2484629,"lng":16.272037}},{"nome":"Sarconi","codice":"076081","regione":"basilicata","provincia":"potenza","codiceCatastale":"I426","cap":"85050","coordinate":{"lat":40.2484297,"lng":15.8896283}},{"nome":"Sasso di Castalda","codice":"076082","regione":"basilicata","provincia":"potenza","codiceCatastale":"I457","cap":"85050","coordinate":{"lat":40.4878148,"lng":15.6782962}},{"nome":"Satriano di Lucania","codice":"076083","regione":"basilicata","provincia":"potenza","codiceCatastale":"G614","cap":"85050","coordinate":{"lat":40.543954,"lng":15.639163}},{"nome":"Savoia di Lucania","codice":"076084","regione":"basilicata","provincia":"potenza","codiceCatastale":"H730","cap":"85050","coordinate":{"lat":40.5697687,"lng":15.5523065}},{"nome":"Scanzano Jonico","codice":"077031","regione":"basilicata","provincia":"matera","codiceCatastale":"M256","cap":"75020","coordinate":{"lat":40.2509754,"lng":16.6991435}},{"nome":"Senise","codice":"076085","regione":"basilicata","provincia":"potenza","codiceCatastale":"I610","cap":"85038","coordinate":{"lat":40.1481296,"lng":16.2898703}},{"nome":"Spinoso","codice":"076086","regione":"basilicata","provincia":"potenza","codiceCatastale":"I917","cap":"85039","coordinate":{"lat":40.2703333,"lng":15.9675185}},{"nome":"Stigliano","codice":"077027","regione":"basilicata","provincia":"matera","codiceCatastale":"I954","cap":"75018","coordinate":{"lat":40.40352,"lng":16.22773}},{"nome":"Teana","codice":"076087","regione":"basilicata","provincia":"potenza","codiceCatastale":"L082","cap":"85032","coordinate":{"lat":40.1278267,"lng":16.1540108}},{"nome":"Terranova di Pollino","codice":"076088","regione":"basilicata","provincia":"potenza","codiceCatastale":"L126","cap":"85030","coordinate":{"lat":39.9783663,"lng":16.2948263}},{"nome":"Tito","codice":"076089","regione":"basilicata","provincia":"potenza","codiceCatastale":"L181","cap":"85050","coordinate":{"lat":40.5837504,"lng":15.6770495}},{"nome":"Tolve","codice":"076090","regione":"basilicata","provincia":"potenza","codiceCatastale":"L197","cap":"85017","coordinate":{"lat":40.6953333,"lng":16.0172037}},{"nome":"Tramutola","codice":"076091","regione":"basilicata","provincia":"potenza","codiceCatastale":"L326","cap":"85057","coordinate":{"lat":40.31541,"lng":15.789691}},{"nome":"Trecchina","codice":"076092","regione":"basilicata","provincia":"potenza","codiceCatastale":"L357","cap":"85049","coordinate":{"lat":40.0276666,"lng":15.7756481}},{"nome":"Tricarico","codice":"077028","regione":"basilicata","provincia":"matera","codiceCatastale":"L418","cap":"75019","coordinate":{"lat":40.6187777,"lng":16.1473518}},{"nome":"Trivigno","codice":"076093","regione":"basilicata","provincia":"potenza","codiceCatastale":"L439","cap":"85018","coordinate":{"lat":40.5798557,"lng":15.9866625}},{"nome":"Tursi","codice":"077029","regione":"basilicata","provincia":"matera","codiceCatastale":"L477","cap":"75028","coordinate":{"lat":40.2462592,"lng":16.4706481}},{"nome":"Vaglio Basilicata","codice":"076094","regione":"basilicata","provincia":"potenza","codiceCatastale":"L532","cap":"85010","coordinate":{"lat":40.6686111,"lng":15.9189259}},{"nome":"Valsinni","codice":"077030","regione":"basilicata","provincia":"matera","codiceCatastale":"D513","cap":"75029","coordinate":{"lat":40.1709444,"lng":16.4443888}},{"nome":"Venosa","codice":"076095","regione":"basilicata","provincia":"potenza","codiceCatastale":"L738","cap":"85029","coordinate":{"lat":40.9623518,"lng":15.8157962}},{"nome":"Vietri di Potenza","codice":"076096","regione":"basilicata","provincia":"potenza","codiceCatastale":"L859","cap":"85058","coordinate":{"lat":40.6007394,"lng":15.508966}},{"nome":"Viggianello","codice":"076097","regione":"basilicata","provincia":"potenza","codiceCatastale":"L873","cap":"85040","coordinate":{"lat":39.9735203,"lng":16.0866886}},{"nome":"Viggiano","codice":"076098","regione":"basilicata","provincia":"potenza","codiceCatastale":"L874","cap":"85059","coordinate":{"lat":40.340298,"lng":15.897849}}]