[{"nome":"Abriola","codice":"076001","codiceCatastale":"A013","regione":"basilicata","provincia":"potenza","cap":"85010","coordinate":{"lat":"15.783333333","lng":"40.516666666"}},{"nome":"Accettura","codice":"077001","codiceCatastale":"A017","regione":"basilicata","provincia":"matera","cap":"75011","coordinate":{"lat":"16.15","lng":"40.483333333"}},{"nome":"Acerenza","codice":"076002","codiceCatastale":"A020","regione":"basilicata","provincia":"potenza","cap":"85011","coordinate":{"lat":"15.95","lng":"40.8"}},{"nome":"Albano di Lucania","codice":"076003","codiceCatastale":"A131","regione":"basilicata","provincia":"potenza","cap":"85010","coordinate":{"lat":"16.033333333","lng":"40.583333333"}},{"nome":"Aliano","codice":"077002","codiceCatastale":"A196","regione":"basilicata","provincia":"matera","cap":"75010","coordinate":{"lat":"16.233333333","lng":"40.316666666"}},{"nome":"Anzi","codice":"076004","codiceCatastale":"A321","regione":"basilicata","provincia":"potenza","cap":"85010","coordinate":{"lat":"15.916666666","lng":"40.516666666"}},{"nome":"Armento","codice":"076005","codiceCatastale":"A415","regione":"basilicata","provincia":"potenza","cap":"85010","coordinate":{"lat":"16.066666666","lng":"40.3"}},{"nome":"Atella","codice":"076006","codiceCatastale":"A482","regione":"basilicata","provincia":"potenza","cap":"85020","coordinate":{"lat":"15.65","lng":"40.866666666"}},{"nome":"Avigliano","codice":"076007","codiceCatastale":"A519","regione":"basilicata","provincia":"potenza","cap":"85021","coordinate":{"lat":"15.716666666","lng":"40.733333333"}},{"nome":"Balvano","codice":"076008","codiceCatastale":"A604","regione":"basilicata","provincia":"potenza","cap":"85050","coordinate":{"lat":"15.516666666","lng":"40.65"}},{"nome":"Banzi","codice":"076009","codiceCatastale":"A612","regione":"basilicata","provincia":"potenza","cap":"85010","coordinate":{"lat":"16.016666666","lng":"40.866666666"}},{"nome":"Baragiano","codice":"076010","codiceCatastale":"A615","regione":"basilicata","provincia":"potenza","cap":"85050","coordinate":{"lat":"15.593819444","lng":"40.679763888"}},{"nome":"Barile","codice":"076011","codiceCatastale":"A666","regione":"basilicata","provincia":"potenza","cap":"85022","coordinate":{"lat":"15.666666666","lng":"40.95"}},{"nome":"Bella","codice":"076012","codiceCatastale":"A743","regione":"basilicata","provincia":"potenza","cap":"85051","coordinate":{"lat":"15.533333333","lng":"40.766666666"}},{"nome":"Bernalda","codice":"077003","codiceCatastale":"A801","regione":"basilicata","provincia":"matera","cap":"75012","coordinate":{"lat":"16.683333333","lng":"40.416666666"}},{"nome":"Brienza","codice":"076013","codiceCatastale":"B173","regione":"basilicata","provincia":"potenza","cap":"85050","coordinate":{"lat":"15.63","lng":"40.478611111"}},{"nome":"Brindisi Montagna","codice":"076014","codiceCatastale":"B181","regione":"basilicata","provincia":"potenza","cap":"85010","coordinate":{"lat":"15.933333333","lng":"40.616666666"}},{"nome":"Calciano","codice":"077004","codiceCatastale":"B391","regione":"basilicata","provincia":"matera","cap":"75010","coordinate":{"lat":"16.2","lng":"40.583333333"}},{"nome":"Calvello","codice":"076015","codiceCatastale":"B440","regione":"basilicata","provincia":"potenza","cap":"85010","coordinate":{"lat":"15.85","lng":"40.483333333"}},{"nome":"Calvera","codice":"076016","codiceCatastale":"B443","regione":"basilicata","provincia":"potenza","cap":"85030","coordinate":{"lat":"16.15","lng":"40.15"}},{"nome":"Campomaggiore","codice":"076017","codiceCatastale":"B549","regione":"basilicata","provincia":"potenza","cap":"85010","coordinate":{"lat":"16.0725","lng":"40.5659"}},{"nome":"Cancellara","codice":"076018","codiceCatastale":"B580","regione":"basilicata","provincia":"potenza","cap":"85010","coordinate":{"lat":"15.9247","lng":"40.73068"}},{"nome":"Carbone","codice":"076019","codiceCatastale":"B743","regione":"basilicata","provincia":"potenza","cap":"85030","coordinate":{"lat":"16.083333333","lng":"40.133333333"}},{"nome":"Castelgrande","codice":"076021","codiceCatastale":"C120","regione":"basilicata","provincia":"potenza","cap":"85050","coordinate":{"lat":"15.433333333","lng":"40.783333333"}},{"nome":"Castelluccio Inferiore","codice":"076022","codiceCatastale":"C199","regione":"basilicata","provincia":"potenza","cap":"85040","coordinate":{"lat":"15.983333333","lng":"40.0"}},{"nome":"Castelluccio Superiore","codice":"076023","codiceCatastale":"C201","regione":"basilicata","provincia":"potenza","cap":"85040","coordinate":{"lat":"15.983333333","lng":"40.016666666"}},{"nome":"Castelmezzano","codice":"076024","codiceCatastale":"C209","regione":"basilicata","provincia":"potenza","cap":"85010","coordinate":{"lat":"16.05","lng":"40.533333333"}},{"nome":"Castelsaraceno","codice":"076025","codiceCatastale":"C271","regione":"basilicata","provincia":"potenza","cap":"85031","coordinate":{"lat":"15.983333333","lng":"40.166666666"}},{"nome":"Castronuovo di Sant'Andrea","codice":"076026","codiceCatastale":"C345","regione":"basilicata","provincia":"potenza","cap":"85030","coordinate":{"lat":"16.183333333","lng":"40.183333333"}},{"nome":"Cersosimo","codice":"076027","codiceCatastale":"C539","regione":"basilicata","provincia":"potenza","cap":"85030","coordinate":{"lat":"16.35","lng":"40.05"}},{"nome":"Chiaromonte","codice":"076028","codiceCatastale":"C619","regione":"basilicata","provincia":"potenza","cap":"85032","coordinate":{"lat":"16.216666666","lng":"40.116666666"}},{"nome":"Cirigliano","codice":"077005","codiceCatastale":"C723","regione":"basilicata","provincia":"matera","cap":"75010","coordinate":{"lat":"16.166666666","lng":"40.4"}},{"nome":"Colobraro","codice":"077006","codiceCatastale":"C888","regione":"basilicata","provincia":"matera","cap":"75021","coordinate":{"lat":"16.433333333","lng":"40.183333333"}},{"nome":"Corleto Perticara","codice":"076029","codiceCatastale":"D010","regione":"basilicata","provincia":"potenza","cap":"85012","coordinate":{"lat":"16.05","lng":"40.383333333"}},{"nome":"Craco","codice":"077007","codiceCatastale":"D128","regione":"basilicata","provincia":"matera","cap":"75010","coordinate":{"lat":"16.433333333","lng":"40.383333333"}},{"nome":"Episcopia","codice":"076030","codiceCatastale":"D414","regione":"basilicata","provincia":"potenza","cap":"85033","coordinate":{"lat":"16.09818","lng":"40.07481"}},{"nome":"Fardella","codice":"076031","codiceCatastale":"D497","regione":"basilicata","provincia":"potenza","cap":"85030","coordinate":{"lat":"16.166666666","lng":"40.116666666"}},{"nome":"Ferrandina","codice":"077008","codiceCatastale":"D547","regione":"basilicata","provincia":"matera","cap":"75013","coordinate":{"lat":"16.45","lng":"40.5"}},{"nome":"Filiano","codice":"076032","codiceCatastale":"D593","regione":"basilicata","provincia":"potenza","cap":"85020","coordinate":{"lat":"15.7","lng":"40.816666666"}},{"nome":"Forenza","codice":"076033","codiceCatastale":"D696","regione":"basilicata","provincia":"potenza","cap":"85023","coordinate":{"lat":"15.85","lng":"40.866666666"}},{"nome":"Francavilla in Sinni","codice":"076034","codiceCatastale":"D766","regione":"basilicata","provincia":"potenza","cap":"85034","coordinate":{"lat":"16.2","lng":"40.083333333"}},{"nome":"Gallicchio","codice":"076035","codiceCatastale":"D876","regione":"basilicata","provincia":"potenza","cap":"85010","coordinate":{"lat":"16.133333333","lng":"40.283333333"}},{"nome":"Garaguso","codice":"077009","codiceCatastale":"D909","regione":"basilicata","provincia":"matera","cap":"75010","coordinate":{"lat":"16.233333333","lng":"40.55"}},{"nome":"Genzano di Lucania","codice":"076036","codiceCatastale":"D971","regione":"basilicata","provincia":"potenza","cap":"85013","coordinate":{"lat":"16.033333333","lng":"40.85"}},{"nome":"Ginestra","codice":"076099","codiceCatastale":"E033","regione":"basilicata","provincia":"potenza","cap":"85020","coordinate":{"lat":"15.733333333","lng":"40.933333333"}},{"nome":"Gorgoglione","codice":"077010","codiceCatastale":"E093","regione":"basilicata","provincia":"matera","cap":"75010","coordinate":{"lat":"16.15","lng":"40.4"}},{"nome":"Grassano","codice":"077011","codiceCatastale":"E147","regione":"basilicata","provincia":"matera","cap":"75014","coordinate":{"lat":"16.283333333","lng":"40.633333333"}},{"nome":"Grottole","codice":"077012","codiceCatastale":"E213","regione":"basilicata","provincia":"matera","cap":"75010","coordinate":{"lat":"16.383333333","lng":"40.6"}},{"nome":"Grumento Nova","codice":"076037","codiceCatastale":"E221","regione":"basilicata","provincia":"potenza","cap":"85050","coordinate":{"lat":"15.889722222","lng":"40.283888888"}},{"nome":"Guardia Perticara","codice":"076038","codiceCatastale":"E246","regione":"basilicata","provincia":"potenza","cap":"85010","coordinate":{"lat":"16.1","lng":"40.366666666"}},{"nome":"Irsina","codice":"077013","codiceCatastale":"E326","regione":"basilicata","provincia":"matera","cap":"75022","coordinate":{"lat":"16.233333333","lng":"40.75"}},{"nome":"Lagonegro","codice":"076039","codiceCatastale":"E409","regione":"basilicata","provincia":"potenza","cap":"85042","coordinate":{"lat":"15.766666666","lng":"40.133333333"}},{"nome":"Latronico","codice":"076040","codiceCatastale":"E474","regione":"basilicata","provincia":"potenza","cap":"85043","coordinate":{"lat":"16.016666666","lng":"40.083333333"}},{"nome":"Laurenzana","codice":"076041","codiceCatastale":"E482","regione":"basilicata","provincia":"potenza","cap":"85014","coordinate":{"lat":"15.966666666","lng":"40.45"}},{"nome":"Lauria","codice":"076042","codiceCatastale":"E483","regione":"basilicata","provincia":"potenza","cap":"85044","coordinate":{"lat":"15.835833333","lng":"40.047222222"}},{"nome":"Lavello","codice":"076043","codiceCatastale":"E493","regione":"basilicata","provincia":"potenza","cap":"85024","coordinate":{"lat":"15.8","lng":"41.05"}},{"nome":"Maratea","codice":"076044","codiceCatastale":"E919","regione":"basilicata","provincia":"potenza","cap":"85046","coordinate":{"lat":"15.716666666","lng":"39.992777777"}},{"nome":"Marsico Nuovo","codice":"076045","codiceCatastale":"E976","regione":"basilicata","provincia":"potenza","cap":"85052","coordinate":{"lat":"15.733333333","lng":"40.416666666"}},{"nome":"Marsicovetere","codice":"076046","codiceCatastale":"E977","regione":"basilicata","provincia":"potenza","cap":"85050","coordinate":{"lat":"15.826111111","lng":"40.374444444"}},{"nome":"Maschito","codice":"076047","codiceCatastale":"F006","regione":"basilicata","provincia":"potenza","cap":"85020","coordinate":{"lat":"15.833333333","lng":"40.916666666"}},{"nome":"Matera","codice":"077014","codiceCatastale":"F052","regione":"basilicata","provincia":"matera","cap":"75100","coordinate":{"lat":"16.6","lng":"40.666666666"}},{"nome":"Melfi","codice":"076048","codiceCatastale":"F104","regione":"basilicata","provincia":"potenza","cap":"85025","coordinate":{"lat":"15.655833333","lng":"40.996388888"}},{"nome":"Miglionico","codice":"077015","codiceCatastale":"F201","regione":"basilicata","provincia":"matera","cap":"75010","coordinate":{"lat":"16.5","lng":"40.566666666"}},{"nome":"Missanello","codice":"076049","codiceCatastale":"F249","regione":"basilicata","provincia":"potenza","cap":"85010","coordinate":{"lat":"16.166666666","lng":"40.283333333"}},{"nome":"Moliterno","codice":"076050","codiceCatastale":"F295","regione":"basilicata","provincia":"potenza","cap":"85047","coordinate":{"lat":"15.86","lng":"40.24"}},{"nome":"Montalbano Jonico","codice":"077016","codiceCatastale":"F399","regione":"basilicata","provincia":"matera","cap":"75023","coordinate":{"lat":"16.566666666","lng":"40.283333333"}},{"nome":"Montemilone","codice":"076051","codiceCatastale":"F568","regione":"basilicata","provincia":"potenza","cap":"85020","coordinate":{"lat":"15.966666666","lng":"41.033333333"}},{"nome":"Montemurro","codice":"076052","codiceCatastale":"F573","regione":"basilicata","provincia":"potenza","cap":"85053","coordinate":{"lat":"15.983333333","lng":"40.3"}},{"nome":"Montescaglioso","codice":"077017","codiceCatastale":"F637","regione":"basilicata","provincia":"matera","cap":"75024","coordinate":{"lat":"16.666666666","lng":"40.55"}},{"nome":"Muro Lucano","codice":"076053","codiceCatastale":"F817","regione":"basilicata","provincia":"potenza","cap":"85054","coordinate":{"lat":"15.483333333","lng":"40.75"}},{"nome":"Nemoli","codice":"076054","codiceCatastale":"F866","regione":"basilicata","provincia":"potenza","cap":"85040","coordinate":{"lat":"15.8","lng":"40.066666666"}},{"nome":"Noepoli","codice":"076055","codiceCatastale":"F917","regione":"basilicata","provincia":"potenza","cap":"85035","coordinate":{"lat":"16.333333333","lng":"40.083333333"}},{"nome":"Nova Siri","codice":"077018","codiceCatastale":"A942","regione":"basilicata","provincia":"matera","cap":"75020","coordinate":{"lat":"16.533333333","lng":"40.15"}},{"nome":"Oliveto Lucano","codice":"077019","codiceCatastale":"G037","regione":"basilicata","provincia":"matera","cap":"75010","coordinate":{"lat":"16.183333333","lng":"40.533333333"}},{"nome":"Oppido Lucano","codice":"076056","codiceCatastale":"G081","regione":"basilicata","provincia":"potenza","cap":"85015","coordinate":{"lat":"15.983333333","lng":"40.766666666"}},{"nome":"Palazzo San Gervasio","codice":"076057","codiceCatastale":"G261","regione":"basilicata","provincia":"potenza","cap":"85026","coordinate":{"lat":"15.981388888","lng":"40.932222222"}},{"nome":"Paterno","codice":"076100","codiceCatastale":"M269","regione":"basilicata","provincia":"potenza","cap":"85050","coordinate":{"lat":"15.733333333","lng":"40.383333333"}},{"nome":"Pescopagano","codice":"076058","codiceCatastale":"G496","regione":"basilicata","provincia":"potenza","cap":"85020","coordinate":{"lat":"15.398805555","lng":"40.836111111"}},{"nome":"Picerno","codice":"076059","codiceCatastale":"G590","regione":"basilicata","provincia":"potenza","cap":"85055","coordinate":{"lat":"15.633333333","lng":"40.633333333"}},{"nome":"Pietragalla","codice":"076060","codiceCatastale":"G616","regione":"basilicata","provincia":"potenza","cap":"85016","coordinate":{"lat":"15.883333333","lng":"40.75"}},{"nome":"Pietrapertosa","codice":"076061","codiceCatastale":"G623","regione":"basilicata","provincia":"potenza","cap":"85010","coordinate":{"lat":"16.066666666","lng":"40.516666666"}},{"nome":"Pignola","codice":"076062","codiceCatastale":"G663","regione":"basilicata","provincia":"potenza","cap":"85010","coordinate":{"lat":"15.783333333","lng":"40.566666666"}},{"nome":"Pisticci","codice":"077020","codiceCatastale":"G712","regione":"basilicata","provincia":"matera","cap":"75015","coordinate":{"lat":"16.55","lng":"40.383333333"}},{"nome":"Policoro","codice":"077021","codiceCatastale":"G786","regione":"basilicata","provincia":"matera","cap":"75025","coordinate":{"lat":"16.666666666","lng":"40.2"}},{"nome":"Pomarico","codice":"077022","codiceCatastale":"G806","regione":"basilicata","provincia":"matera","cap":"75016","coordinate":{"lat":"16.55","lng":"40.516666666"}},{"nome":"Potenza","codice":"076063","codiceCatastale":"G942","regione":"basilicata","provincia":"potenza","cap":"85100","coordinate":{"lat":"15.8","lng":"40.633333333"}},{"nome":"Rapolla","codice":"076064","codiceCatastale":"H186","regione":"basilicata","provincia":"potenza","cap":"85027","coordinate":{"lat":"15.666666666","lng":"40.983333333"}},{"nome":"Rapone","codice":"076065","codiceCatastale":"H187","regione":"basilicata","provincia":"potenza","cap":"85020","coordinate":{"lat":"15.5","lng":"40.85"}},{"nome":"Rionero in Vulture","codice":"076066","codiceCatastale":"H307","regione":"basilicata","provincia":"potenza","cap":"85028","coordinate":{"lat":"15.666666666","lng":"40.916666666"}},{"nome":"Ripacandida","codice":"076067","codiceCatastale":"H312","regione":"basilicata","provincia":"potenza","cap":"85020","coordinate":{"lat":"15.725555555","lng":"40.912777777"}},{"nome":"Rivello","codice":"076068","codiceCatastale":"H348","regione":"basilicata","provincia":"potenza","cap":"85040","coordinate":{"lat":"15.75798","lng":"40.07821"}},{"nome":"Roccanova","codice":"076069","codiceCatastale":"H426","regione":"basilicata","provincia":"potenza","cap":"85036","coordinate":{"lat":"16.2","lng":"40.216666666"}},{"nome":"Rotonda","codice":"076070","codiceCatastale":"H590","regione":"basilicata","provincia":"potenza","cap":"85048","coordinate":{"lat":"16.039763888","lng":"39.954275"}},{"nome":"Rotondella","codice":"077023","codiceCatastale":"H591","regione":"basilicata","provincia":"matera","cap":"75026","coordinate":{"lat":"16.516666666","lng":"40.166666666"}},{"nome":"Ruoti","codice":"076071","codiceCatastale":"H641","regione":"basilicata","provincia":"potenza","cap":"85056","coordinate":{"lat":"15.683333333","lng":"40.716666666"}},{"nome":"Ruvo del Monte","codice":"076072","codiceCatastale":"H646","regione":"basilicata","provincia":"potenza","cap":"85020","coordinate":{"lat":"15.54","lng":"40.847222222"}},{"nome":"Salandra","codice":"077024","codiceCatastale":"H687","regione":"basilicata","provincia":"matera","cap":"75017","coordinate":{"lat":"16.316666666","lng":"40.533333333"}},{"nome":"San Chirico Nuovo","codice":"076073","codiceCatastale":"H795","regione":"basilicata","provincia":"potenza","cap":"85010","coordinate":{"lat":"16.083333333","lng":"40.683333333"}},{"nome":"San Chirico Raparo","codice":"076074","codiceCatastale":"H796","regione":"basilicata","provincia":"potenza","cap":"85030","coordinate":{"lat":"16.083333333","lng":"40.183333333"}},{"nome":"San Costantino Albanese","codice":"076075","codiceCatastale":"H808","regione":"basilicata","provincia":"potenza","cap":"85030","coordinate":{"lat":"16.3","lng":"40.033333333"}},{"nome":"San Fele","codice":"076076","codiceCatastale":"H831","regione":"basilicata","provincia":"potenza","cap":"85020","coordinate":{"lat":"15.54043","lng":"40.81647"}},{"nome":"San Giorgio Lucano","codice":"077025","codiceCatastale":"H888","regione":"basilicata","provincia":"matera","cap":"75027","coordinate":{"lat":"16.383333333","lng":"40.116666666"}},{"nome":"San Martino d'Agri","codice":"076077","codiceCatastale":"H994","regione":"basilicata","provincia":"potenza","cap":"85030","coordinate":{"lat":"16.05","lng":"40.233333333"}},{"nome":"San Mauro Forte","codice":"077026","codiceCatastale":"I029","regione":"basilicata","provincia":"matera","cap":"75010","coordinate":{"lat":"16.25","lng":"40.483333333"}},{"nome":"San Paolo Albanese","codice":"076020","codiceCatastale":"B906","regione":"basilicata","provincia":"potenza","cap":"85030","coordinate":{"lat":"16.333333333","lng":"40.033333333"}},{"nome":"San Severino Lucano","codice":"076078","codiceCatastale":"I157","regione":"basilicata","provincia":"potenza","cap":"85030","coordinate":{"lat":"16.133333333","lng":"40.016666666"}},{"nome":"Sant'Angelo Le Fratte","codice":"076079","codiceCatastale":"I288","regione":"basilicata","provincia":"potenza","cap":"85050","coordinate":{"lat":"15.5575","lng":"40.546944444"}},{"nome":"Sant'Arcangelo","codice":"076080","codiceCatastale":"I305","regione":"basilicata","provincia":"potenza","cap":"85037","coordinate":{"lat":"16.27046","lng":"40.24852"}},{"nome":"Sarconi","codice":"076081","codiceCatastale":"I426","regione":"basilicata","provincia":"potenza","cap":"85040","coordinate":{"lat":"15.883333333","lng":"40.25"}},{"nome":"Sasso di Castalda","codice":"076082","codiceCatastale":"I457","regione":"basilicata","provincia":"potenza","cap":"85050","coordinate":{"lat":"15.683333333","lng":"40.483333333"}},{"nome":"Satriano di Lucania","codice":"076083","codiceCatastale":"G614","regione":"basilicata","provincia":"potenza","cap":"85050","coordinate":{"lat":"15.639166666","lng":"40.545"}},{"nome":"Savoia di Lucania","codice":"076084","codiceCatastale":"H730","regione":"basilicata","provincia":"potenza","cap":"85050","coordinate":{"lat":"15.55","lng":"40.566666666"}},{"nome":"Scanzano Jonico","codice":"077031","codiceCatastale":"M256","regione":"basilicata","provincia":"matera","cap":"75020","coordinate":{"lat":"16.7","lng":"40.25"}},{"nome":"Senise","codice":"076085","codiceCatastale":"I610","regione":"basilicata","provincia":"potenza","cap":"85038","coordinate":{"lat":"16.283333333","lng":"40.133333333"}},{"nome":"Spinoso","codice":"076086","codiceCatastale":"I917","regione":"basilicata","provincia":"potenza","cap":"85039","coordinate":{"lat":"15.966666666","lng":"40.266666666"}},{"nome":"Stigliano","codice":"077027","codiceCatastale":"I954","regione":"basilicata","provincia":"matera","cap":"75018","coordinate":{"lat":"16.233333333","lng":"40.4"}},{"nome":"Teana","codice":"076087","codiceCatastale":"L082","regione":"basilicata","provincia":"potenza","cap":"85030","coordinate":{"lat":"16.155277777","lng":"40.127777777"}},{"nome":"Terranova di Pollino","codice":"076088","codiceCatastale":"L126","regione":"basilicata","provincia":"potenza","cap":"85030","coordinate":{"lat":"16.3","lng":"39.983333333"}},{"nome":"Tito","codice":"076089","codiceCatastale":"L181","regione":"basilicata","provincia":"potenza","cap":"85050","coordinate":{"lat":"15.683333333","lng":"40.583333333"}},{"nome":"Tolve","codice":"076090","codiceCatastale":"L197","regione":"basilicata","provincia":"potenza","cap":"85017","coordinate":{"lat":"16.016666666","lng":"40.7"}},{"nome":"Tramutola","codice":"076091","codiceCatastale":"L326","regione":"basilicata","provincia":"potenza","cap":"85057","coordinate":{"lat":"15.783333333","lng":"40.316666666"}},{"nome":"Trecchina","codice":"076092","codiceCatastale":"L357","regione":"basilicata","provincia":"potenza","cap":"85049","coordinate":{"lat":"15.766666666","lng":"40.033333333"}},{"nome":"Tricarico","codice":"077028","codiceCatastale":"L418","regione":"basilicata","provincia":"matera","cap":"75019","coordinate":{"lat":"16.15","lng":"40.616666666"}},{"nome":"Trivigno","codice":"076093","codiceCatastale":"L439","regione":"basilicata","provincia":"potenza","cap":"85018","coordinate":{"lat":"15.983333333","lng":"40.583333333"}},{"nome":"Tursi","codice":"077029","codiceCatastale":"L477","regione":"basilicata","provincia":"matera","cap":"75028","coordinate":{"lat":"16.466666666","lng":"40.25"}},{"nome":"Vaglio Basilicata","codice":"076094","codiceCatastale":"L532","regione":"basilicata","provincia":"potenza","cap":"85010","coordinate":{"lat":"15.896061111","lng":"40.675147222"}},{"nome":"Valsinni","codice":"077030","codiceCatastale":"D513","regione":"basilicata","provincia":"matera","cap":"75029","coordinate":{"lat":"16.45","lng":"40.166666666"}},{"nome":"Venosa","codice":"076095","codiceCatastale":"L738","regione":"basilicata","provincia":"potenza","cap":"85029","coordinate":{"lat":"15.816666666","lng":"40.966666666"}},{"nome":"Vietri di Potenza","codice":"076096","codiceCatastale":"L859","regione":"basilicata","provincia":"potenza","cap":"85058","coordinate":{"lat":"15.5","lng":"40.6"}},{"nome":"Viggianello","codice":"076097","codiceCatastale":"L873","regione":"basilicata","provincia":"potenza","cap":"85040","coordinate":{"lat":"16.083333333","lng":"39.966666666"}},{"nome":"Viggiano","codice":"076098","codiceCatastale":"L874","regione":"basilicata","provincia":"potenza","cap":"85059","coordinate":{"lat":"15.9","lng":"40.333333333"}}]