[{"nome":"Accumoli","codice":"057001","codiceCatastale":"A019","regione":"lazio","provincia":"rieti","cap":"02011","coordinate":{"lat":"13.2475","lng":"42.694444444"}},{"nome":"Acquafondata","codice":"060001","codiceCatastale":"A032","regione":"lazio","provincia":"frosinone","cap":"03040","coordinate":{"lat":"13.95","lng":"41.55"}},{"nome":"Acquapendente","codice":"056001","codiceCatastale":"A040","regione":"lazio","provincia":"viterbo","cap":"01021","coordinate":{"lat":"11.865","lng":"42.744722222"}},{"nome":"Acuto","codice":"060002","codiceCatastale":"A054","regione":"lazio","provincia":"frosinone","cap":"03010","coordinate":{"lat":"13.173316666","lng":"41.791927777"}},{"nome":"Affile","codice":"058001","codiceCatastale":"A062","regione":"lazio","provincia":"roma","cap":"00021","coordinate":{"lat":"13.096111111","lng":"41.885"}},{"nome":"Agosta","codice":"058002","codiceCatastale":"A084","regione":"lazio","provincia":"roma","cap":"00020","coordinate":{"lat":"13.033611111","lng":"41.9825"}},{"nome":"Alatri","codice":"060003","codiceCatastale":"A123","regione":"lazio","provincia":"frosinone","cap":"03011","coordinate":{"lat":"13.342222222","lng":"41.726388888"}},{"nome":"Albano Laziale","codice":"058003","codiceCatastale":"A132","regione":"lazio","provincia":"roma","cap":"00041","coordinate":{"lat":"12.666666666","lng":"41.733333333"}},{"nome":"Allumiere","codice":"058004","codiceCatastale":"A210","regione":"lazio","provincia":"roma","cap":"00051","coordinate":{"lat":"11.904722222","lng":"42.156944444"}},{"nome":"Alvito","codice":"060004","codiceCatastale":"A244","regione":"lazio","provincia":"frosinone","cap":"03041","coordinate":{"lat":"13.744444444","lng":"41.688888888"}},{"nome":"Amaseno","codice":"060005","codiceCatastale":"A256","regione":"lazio","provincia":"frosinone","cap":"03021","coordinate":{"lat":"13.333333333","lng":"41.466666666"}},{"nome":"Amatrice","codice":"057002","codiceCatastale":"A258","regione":"lazio","provincia":"rieti","cap":"02012","coordinate":{"lat":"13.288372222","lng":"42.629380555"}},{"nome":"Anagni","codice":"060006","codiceCatastale":"A269","regione":"lazio","provincia":"frosinone","cap":"03012","coordinate":{"lat":"13.15","lng":"41.75"}},{"nome":"Anguillara Sabazia","codice":"058005","codiceCatastale":"A297","regione":"lazio","provincia":"roma","cap":"00061","coordinate":{"lat":"12.2775","lng":"42.088333333"}},{"nome":"Anticoli Corrado","codice":"058006","codiceCatastale":"A309","regione":"lazio","provincia":"roma","cap":"00022","coordinate":{"lat":"12.983333333","lng":"42.016666666"}},{"nome":"Antrodoco","codice":"057003","codiceCatastale":"A315","regione":"lazio","provincia":"rieti","cap":"02013","coordinate":{"lat":"13.083333333","lng":"42.416666666"}},{"nome":"Anzio","codice":"058007","codiceCatastale":"A323","regione":"lazio","provincia":"roma","cap":"00042","coordinate":{"lat":"12.62833333","lng":"41.44722222"}},{"nome":"Aprilia","codice":"059001","codiceCatastale":"A341","regione":"lazio","provincia":"latina","cap":"04011","coordinate":{"lat":"12.65","lng":"41.583333333"}},{"nome":"Aquino","codice":"060007","codiceCatastale":"A348","regione":"lazio","provincia":"frosinone","cap":"03031","coordinate":{"lat":"13.7","lng":"41.5"}},{"nome":"Arce","codice":"060008","codiceCatastale":"A363","regione":"lazio","provincia":"frosinone","cap":"03032","coordinate":{"lat":"13.583333333","lng":"41.583333333"}},{"nome":"Arcinazzo Romano","codice":"058008","codiceCatastale":"A370","regione":"lazio","provincia":"roma","cap":"00020","coordinate":{"lat":"13.116666666","lng":"41.883333333"}},{"nome":"Ardea","codice":"058117","codiceCatastale":"M213","regione":"lazio","provincia":"roma","cap":"00040","coordinate":{"lat":"12.55","lng":"41.616666666"}},{"nome":"Ariccia","codice":"058009","codiceCatastale":"A401","regione":"lazio","provincia":"roma","cap":"00040","coordinate":{"lat":"12.666666666","lng":"41.716666666"}},{"nome":"Arlena di Castro","codice":"056002","codiceCatastale":"A412","regione":"lazio","provincia":"viterbo","cap":"01010","coordinate":{"lat":"11.821388888","lng":"42.463611111"}},{"nome":"Arnara","codice":"060009","codiceCatastale":"A421","regione":"lazio","provincia":"frosinone","cap":"03020","coordinate":{"lat":"13.383333333","lng":"41.583333333"}},{"nome":"Arpino","codice":"060010","codiceCatastale":"A433","regione":"lazio","provincia":"frosinone","cap":"03033","coordinate":{"lat":"13.61155","lng":"41.64705"}},{"nome":"Arsoli","codice":"058010","codiceCatastale":"A446","regione":"lazio","provincia":"roma","cap":"00023","coordinate":{"lat":"13.01781","lng":"42.04046"}},{"nome":"Artena","codice":"058011","codiceCatastale":"A449","regione":"lazio","provincia":"roma","cap":"00031","coordinate":{"lat":"12.916666666","lng":"41.733333333"}},{"nome":"Ascrea","codice":"057004","codiceCatastale":"A464","regione":"lazio","provincia":"rieti","cap":"02020","coordinate":{"lat":"12.9975","lng":"42.196944444"}},{"nome":"Atina","codice":"060011","codiceCatastale":"A486","regione":"lazio","provincia":"frosinone","cap":"03042","coordinate":{"lat":"13.798438797","lng":"41.620499997"}},{"nome":"Ausonia","codice":"060012","codiceCatastale":"A502","regione":"lazio","provincia":"frosinone","cap":"03040","coordinate":{"lat":"13.75","lng":"41.35"}},{"nome":"Bagnoregio","codice":"056003","codiceCatastale":"A577","regione":"lazio","provincia":"viterbo","cap":"01022","coordinate":{"lat":"12.089166666","lng":"42.63"}},{"nome":"Barbarano Romano","codice":"056004","codiceCatastale":"A628","regione":"lazio","provincia":"viterbo","cap":"01010","coordinate":{"lat":"12.0675","lng":"42.250277777"}},{"nome":"Bassano in Teverina","codice":"056006","codiceCatastale":"A706","regione":"lazio","provincia":"viterbo","cap":"01030","coordinate":{"lat":"12.3125","lng":"42.466666666"}},{"nome":"Bassano Romano","codice":"056005","codiceCatastale":"A704","regione":"lazio","provincia":"viterbo","cap":"01030","coordinate":{"lat":"12.19","lng":"42.225277777"}},{"nome":"Bassiano","codice":"059002","codiceCatastale":"A707","regione":"lazio","provincia":"latina","cap":"04010","coordinate":{"lat":"13.033333333","lng":"41.55"}},{"nome":"Bellegra","codice":"058012","codiceCatastale":"A749","regione":"lazio","provincia":"roma","cap":"00030","coordinate":{"lat":"13.033333333","lng":"41.883333333"}},{"nome":"Belmonte Castello","codice":"060013","codiceCatastale":"A763","regione":"lazio","provincia":"frosinone","cap":"03040","coordinate":{"lat":"13.816666666","lng":"41.583333333"}},{"nome":"Belmonte in Sabina","codice":"057005","codiceCatastale":"A765","regione":"lazio","provincia":"rieti","cap":"02020","coordinate":{"lat":"12.9","lng":"42.316666666"}},{"nome":"Blera","codice":"056007","codiceCatastale":"A857","regione":"lazio","provincia":"viterbo","cap":"01010","coordinate":{"lat":"12.0325","lng":"42.273333333"}},{"nome":"Bolsena","codice":"056008","codiceCatastale":"A949","regione":"lazio","provincia":"viterbo","cap":"01023","coordinate":{"lat":"11.985833333","lng":"42.644722222"}},{"nome":"Bomarzo","codice":"056009","codiceCatastale":"A955","regione":"lazio","provincia":"viterbo","cap":"01020","coordinate":{"lat":"12.249444444","lng":"42.482777777"}},{"nome":"Borbona","codice":"057006","codiceCatastale":"A981","regione":"lazio","provincia":"rieti","cap":"02010","coordinate":{"lat":"13.133333333","lng":"42.516666666"}},{"nome":"Borgo Velino","codice":"057008","codiceCatastale":"A996","regione":"lazio","provincia":"rieti","cap":"02010","coordinate":{"lat":"13.066666666","lng":"42.4"}},{"nome":"Borgorose","codice":"057007","codiceCatastale":"B008","regione":"lazio","provincia":"rieti","cap":"02021","coordinate":{"lat":"13.233333333","lng":"42.2"}},{"nome":"Boville Ernica","codice":"060014","codiceCatastale":"A720","regione":"lazio","provincia":"frosinone","cap":"03022","coordinate":{"lat":"13.473988888","lng":"41.6425"}},{"nome":"Bracciano","codice":"058013","codiceCatastale":"B114","regione":"lazio","provincia":"roma","cap":"00062","coordinate":{"lat":"12.183333","lng":"42.1"}},{"nome":"Broccostella","codice":"060015","codiceCatastale":"B195","regione":"lazio","provincia":"frosinone","cap":"03030","coordinate":{"lat":"13.633333333","lng":"41.7"}},{"nome":"Calcata","codice":"056010","codiceCatastale":"B388","regione":"lazio","provincia":"viterbo","cap":"01030","coordinate":{"lat":"12.42617","lng":"42.21952"}},{"nome":"Camerata Nuova","codice":"058014","codiceCatastale":"B472","regione":"lazio","provincia":"roma","cap":"00020","coordinate":{"lat":"13.1","lng":"42.016666666"}},{"nome":"Campagnano di Roma","codice":"058015","codiceCatastale":"B496","regione":"lazio","provincia":"roma","cap":"00063","coordinate":{"lat":"12.383333333","lng":"42.133333333"}},{"nome":"Campodimele","codice":"059003","codiceCatastale":"B527","regione":"lazio","provincia":"latina","cap":"04020","coordinate":{"lat":"13.533333333","lng":"41.383333333"}},{"nome":"Campoli Appennino","codice":"060016","codiceCatastale":"B543","regione":"lazio","provincia":"frosinone","cap":"03030","coordinate":{"lat":"13.683333333","lng":"41.733333333"}},{"nome":"Canale Monterano","codice":"058016","codiceCatastale":"B576","regione":"lazio","provincia":"roma","cap":"00060","coordinate":{"lat":"12.1","lng":"42.133333333"}},{"nome":"Canepina","codice":"056011","codiceCatastale":"B597","regione":"lazio","provincia":"viterbo","cap":"01030","coordinate":{"lat":"12.232777777","lng":"42.383055555"}},{"nome":"Canino","codice":"056012","codiceCatastale":"B604","regione":"lazio","provincia":"viterbo","cap":"01011","coordinate":{"lat":"11.751944444","lng":"42.465"}},{"nome":"Cantalice","codice":"057009","codiceCatastale":"B627","regione":"lazio","provincia":"rieti","cap":"02014","coordinate":{"lat":"12.9","lng":"42.466666666"}},{"nome":"Cantalupo in Sabina","codice":"057010","codiceCatastale":"B631","regione":"lazio","provincia":"rieti","cap":"02040","coordinate":{"lat":"12.65","lng":"42.3"}},{"nome":"Canterano","codice":"058017","codiceCatastale":"B635","regione":"lazio","provincia":"roma","cap":"00020","coordinate":{"lat":"13.033333333","lng":"41.95"}},{"nome":"Capena","codice":"058018","codiceCatastale":"B649","regione":"lazio","provincia":"roma","cap":"00060","coordinate":{"lat":"12.540277777","lng":"42.140277777"}},{"nome":"Capodimonte","codice":"056013","codiceCatastale":"B663","regione":"lazio","provincia":"viterbo","cap":"01010","coordinate":{"lat":"11.905555555","lng":"42.5475"}},{"nome":"Capranica","codice":"056014","codiceCatastale":"B688","regione":"lazio","provincia":"viterbo","cap":"01012","coordinate":{"lat":"12.17278","lng":"42.25849"}},{"nome":"Capranica Prenestina","codice":"058019","codiceCatastale":"B687","regione":"lazio","provincia":"roma","cap":"00030","coordinate":{"lat":"12.95","lng":"41.866666666"}},{"nome":"Caprarola","codice":"056015","codiceCatastale":"B691","regione":"lazio","provincia":"viterbo","cap":"01032","coordinate":{"lat":"12.236666666","lng":"42.3275"}},{"nome":"Carbognano","codice":"056016","codiceCatastale":"B735","regione":"lazio","provincia":"viterbo","cap":"01030","coordinate":{"lat":"12.265277777","lng":"42.3325"}},{"nome":"Carpineto Romano","codice":"058020","codiceCatastale":"B828","regione":"lazio","provincia":"roma","cap":"00032","coordinate":{"lat":"13.083333333","lng":"41.6"}},{"nome":"Casalattico","codice":"060017","codiceCatastale":"B862","regione":"lazio","provincia":"frosinone","cap":"03030","coordinate":{"lat":"13.725","lng":"41.621666666"}},{"nome":"Casalvieri","codice":"060018","codiceCatastale":"B919","regione":"lazio","provincia":"frosinone","cap":"03034","coordinate":{"lat":"13.716666666","lng":"41.633333333"}},{"nome":"Casape","codice":"058021","codiceCatastale":"B932","regione":"lazio","provincia":"roma","cap":"00010","coordinate":{"lat":"12.885555555","lng":"41.906944444"}},{"nome":"Casaprota","codice":"057011","codiceCatastale":"B934","regione":"lazio","provincia":"rieti","cap":"02030","coordinate":{"lat":"12.8","lng":"42.25"}},{"nome":"Casperia","codice":"057012","codiceCatastale":"A472","regione":"lazio","provincia":"rieti","cap":"02041","coordinate":{"lat":"12.666666666","lng":"42.333333333"}},{"nome":"Cassino","codice":"060019","codiceCatastale":"C034","regione":"lazio","provincia":"frosinone","cap":"03043","coordinate":{"lat":"13.833333333","lng":"41.491666666"}},{"nome":"Castel di Tora","codice":"057013","codiceCatastale":"C098","regione":"lazio","provincia":"rieti","cap":"02020","coordinate":{"lat":"12.96359","lng":"42.214925"}},{"nome":"Castel Gandolfo","codice":"058022","codiceCatastale":"C116","regione":"lazio","provincia":"roma","cap":"00073","coordinate":{"lat":"12.651944444","lng":"41.746944444"}},{"nome":"Castel Madama","codice":"058023","codiceCatastale":"C203","regione":"lazio","provincia":"roma","cap":"00024","coordinate":{"lat":"12.867222222","lng":"41.974722222"}},{"nome":"Castel San Pietro Romano","codice":"058025","codiceCatastale":"C266","regione":"lazio","provincia":"roma","cap":"00030","coordinate":{"lat":"12.895","lng":"41.845833333"}},{"nome":"Castel Sant'Angelo","codice":"057015","codiceCatastale":"C268","regione":"lazio","provincia":"rieti","cap":"02010","coordinate":{"lat":"13.016666666","lng":"42.4"}},{"nome":"Castel Sant'Elia","codice":"056017","codiceCatastale":"C269","regione":"lazio","provincia":"viterbo","cap":"01030","coordinate":{"lat":"12.375","lng":"42.251388888"}},{"nome":"Castelforte","codice":"059004","codiceCatastale":"C104","regione":"lazio","provincia":"latina","cap":"04021","coordinate":{"lat":"13.833333333","lng":"41.3"}},{"nome":"Castelliri","codice":"060020","codiceCatastale":"C177","regione":"lazio","provincia":"frosinone","cap":"03030","coordinate":{"lat":"13.55","lng":"41.683333333"}},{"nome":"Castelnuovo di Farfa","codice":"057014","codiceCatastale":"C224","regione":"lazio","provincia":"rieti","cap":"02031","coordinate":{"lat":"12.75","lng":"42.233333333"}},{"nome":"Castelnuovo di Porto","codice":"058024","codiceCatastale":"C237","regione":"lazio","provincia":"roma","cap":"00060","coordinate":{"lat":"12.5","lng":"42.127777777"}},{"nome":"Castelnuovo Parano","codice":"060021","codiceCatastale":"C223","regione":"lazio","provincia":"frosinone","cap":"03040","coordinate":{"lat":"13.75","lng":"41.366666666"}},{"nome":"Castiglione in Teverina","codice":"056018","codiceCatastale":"C315","regione":"lazio","provincia":"viterbo","cap":"01024","coordinate":{"lat":"12.204166666","lng":"42.648888888"}},{"nome":"Castro dei Volsci","codice":"060023","codiceCatastale":"C338","regione":"lazio","provincia":"frosinone","cap":"03020","coordinate":{"lat":"13.4","lng":"41.516666666"}},{"nome":"Castrocielo","codice":"060022","codiceCatastale":"C340","regione":"lazio","provincia":"frosinone","cap":"03030","coordinate":{"lat":"13.7","lng":"41.533333333"}},{"nome":"Cave","codice":"058026","codiceCatastale":"C390","regione":"lazio","provincia":"roma","cap":"00033","coordinate":{"lat":"12.933333333","lng":"41.816666666"}},{"nome":"Ceccano","codice":"060024","codiceCatastale":"C413","regione":"lazio","provincia":"frosinone","cap":"03023","coordinate":{"lat":"13.333333333","lng":"41.566666666"}},{"nome":"Celleno","codice":"056019","codiceCatastale":"C446","regione":"lazio","provincia":"viterbo","cap":"01020","coordinate":{"lat":"12.137222222","lng":"42.560833333"}},{"nome":"Cellere","codice":"056020","codiceCatastale":"C447","regione":"lazio","provincia":"viterbo","cap":"01010","coordinate":{"lat":"11.7725","lng":"42.511388888"}},{"nome":"Ceprano","codice":"060025","codiceCatastale":"C479","regione":"lazio","provincia":"frosinone","cap":"03024","coordinate":{"lat":"13.516666666","lng":"41.55"}},{"nome":"Cerreto Laziale","codice":"058027","codiceCatastale":"C518","regione":"lazio","provincia":"roma","cap":"00020","coordinate":{"lat":"12.982777777","lng":"41.945"}},{"nome":"Cervara di Roma","codice":"058028","codiceCatastale":"C543","regione":"lazio","provincia":"roma","cap":"00020","coordinate":{"lat":"13.067222222","lng":"41.988055555"}},{"nome":"Cervaro","codice":"060026","codiceCatastale":"C545","regione":"lazio","provincia":"frosinone","cap":"03044","coordinate":{"lat":"13.90218","lng":"41.48278"}},{"nome":"Cerveteri","codice":"058029","codiceCatastale":"C552","regione":"lazio","provincia":"roma","cap":"00052","coordinate":{"lat":"12.1","lng":"42.0"}},{"nome":"Ciampino","codice":"058118","codiceCatastale":"M272","regione":"lazio","provincia":"roma","cap":"00043","coordinate":{"lat":"12.6","lng":"41.8"}},{"nome":"Ciciliano","codice":"058030","codiceCatastale":"C677","regione":"lazio","provincia":"roma","cap":"00020","coordinate":{"lat":"12.941388888","lng":"41.961666666"}},{"nome":"Cineto Romano","codice":"058031","codiceCatastale":"C702","regione":"lazio","provincia":"roma","cap":"00020","coordinate":{"lat":"12.965","lng":"42.050277777"}},{"nome":"Cisterna di Latina","codice":"059005","codiceCatastale":"C740","regione":"lazio","provincia":"latina","cap":"04012","coordinate":{"lat":"12.833333333","lng":"41.6"}},{"nome":"Cittaducale","codice":"057016","codiceCatastale":"C746","regione":"lazio","provincia":"rieti","cap":"02015","coordinate":{"lat":"12.95","lng":"42.383333333"}},{"nome":"Cittareale","codice":"057017","codiceCatastale":"C749","regione":"lazio","provincia":"rieti","cap":"02010","coordinate":{"lat":"13.166666666","lng":"42.616666666"}},{"nome":"Civita Castellana","codice":"056021","codiceCatastale":"C765","regione":"lazio","provincia":"viterbo","cap":"01033","coordinate":{"lat":"12.41","lng":"42.296111111"}},{"nome":"Civitavecchia","codice":"058032","codiceCatastale":"C773","regione":"lazio","provincia":"roma","cap":"00053","coordinate":{"lat":"11.8","lng":"42.1"}},{"nome":"Civitella d'Agliano","codice":"056022","codiceCatastale":"C780","regione":"lazio","provincia":"viterbo","cap":"01020","coordinate":{"lat":"12.187777777","lng":"42.604166666"}},{"nome":"Civitella San Paolo","codice":"058033","codiceCatastale":"C784","regione":"lazio","provincia":"roma","cap":"00060","coordinate":{"lat":"12.582222222","lng":"42.195833333"}},{"nome":"Colfelice","codice":"060027","codiceCatastale":"C836","regione":"lazio","provincia":"frosinone","cap":"03030","coordinate":{"lat":"13.6","lng":"41.55"}},{"nome":"Collalto Sabino","codice":"057018","codiceCatastale":"C841","regione":"lazio","provincia":"rieti","cap":"02022","coordinate":{"lat":"13.0484","lng":"42.1367"}},{"nome":"Colle di Tora","codice":"057019","codiceCatastale":"C857","regione":"lazio","provincia":"rieti","cap":"02020","coordinate":{"lat":"12.94767","lng":"42.211742"}},{"nome":"Colle San Magno","codice":"060029","codiceCatastale":"C870","regione":"lazio","provincia":"frosinone","cap":"03030","coordinate":{"lat":"13.7","lng":"41.55"}},{"nome":"Colleferro","codice":"058034","codiceCatastale":"C858","regione":"lazio","provincia":"roma","cap":"00034","coordinate":{"lat":"13.00314","lng":"41.72868"}},{"nome":"Collegiove","codice":"057020","codiceCatastale":"C859","regione":"lazio","provincia":"rieti","cap":"02020","coordinate":{"lat":"13.033333333","lng":"42.183333333"}},{"nome":"Collepardo","codice":"060028","codiceCatastale":"C864","regione":"lazio","provincia":"frosinone","cap":"03010","coordinate":{"lat":"13.366666666","lng":"41.766666666"}},{"nome":"Collevecchio","codice":"057021","codiceCatastale":"C876","regione":"lazio","provincia":"rieti","cap":"02042","coordinate":{"lat":"12.55329","lng":"42.33368"}},{"nome":"Colli sul Velino","codice":"057022","codiceCatastale":"C880","regione":"lazio","provincia":"rieti","cap":"02010","coordinate":{"lat":"12.783333333","lng":"42.5"}},{"nome":"Colonna","codice":"058035","codiceCatastale":"C900","regione":"lazio","provincia":"roma","cap":"00030","coordinate":{"lat":"12.75","lng":"41.833333"}},{"nome":"Concerviano","codice":"057023","codiceCatastale":"C946","regione":"lazio","provincia":"rieti","cap":"02020","coordinate":{"lat":"12.983333333","lng":"42.316666666"}},{"nome":"Configni","codice":"057024","codiceCatastale":"C959","regione":"lazio","provincia":"rieti","cap":"02040","coordinate":{"lat":"12.64431","lng":"42.42543"}},{"nome":"Contigliano","codice":"057025","codiceCatastale":"C969","regione":"lazio","provincia":"rieti","cap":"02043","coordinate":{"lat":"12.766666666","lng":"42.416666666"}},{"nome":"Corchiano","codice":"056023","codiceCatastale":"C988","regione":"lazio","provincia":"viterbo","cap":"01030","coordinate":{"lat":"12.356388888","lng":"42.345833333"}},{"nome":"Coreno Ausonio","codice":"060030","codiceCatastale":"C998","regione":"lazio","provincia":"frosinone","cap":"03040","coordinate":{"lat":"13.776666666","lng":"41.343055555"}},{"nome":"Cori","codice":"059006","codiceCatastale":"D003","regione":"lazio","provincia":"latina","cap":"04010","coordinate":{"lat":"12.916666666","lng":"41.65"}},{"nome":"Cottanello","codice":"057026","codiceCatastale":"D124","regione":"lazio","provincia":"rieti","cap":"02040","coordinate":{"lat":"12.686111111","lng":"42.405833333"}},{"nome":"Esperia","codice":"060031","codiceCatastale":"D440","regione":"lazio","provincia":"frosinone","cap":"03045","coordinate":{"lat":"13.683333333","lng":"41.383333333"}},{"nome":"Fabrica di Roma","codice":"056024","codiceCatastale":"D452","regione":"lazio","provincia":"viterbo","cap":"01034","coordinate":{"lat":"12.300277777","lng":"42.334722222"}},{"nome":"Faleria","codice":"056025","codiceCatastale":"D475","regione":"lazio","provincia":"viterbo","cap":"01030","coordinate":{"lat":"12.446111111","lng":"42.2275"}},{"nome":"Falvaterra","codice":"060032","codiceCatastale":"D483","regione":"lazio","provincia":"frosinone","cap":"03020","coordinate":{"lat":"13.523888888","lng":"41.504722222"}},{"nome":"Fara in Sabina","codice":"057027","codiceCatastale":"D493","regione":"lazio","provincia":"rieti","cap":"02032","coordinate":{"lat":"12.733333333","lng":"42.216666666"}},{"nome":"Farnese","codice":"056026","codiceCatastale":"D503","regione":"lazio","provincia":"viterbo","cap":"01010","coordinate":{"lat":"11.726388888","lng":"42.550277777"}},{"nome":"Ferentino","codice":"060033","codiceCatastale":"D539","regione":"lazio","provincia":"frosinone","cap":"03013","coordinate":{"lat":"13.25","lng":"41.683333333"}},{"nome":"Fiamignano","codice":"057028","codiceCatastale":"D560","regione":"lazio","provincia":"rieti","cap":"02023","coordinate":{"lat":"13.133333333","lng":"42.266666666"}},{"nome":"Fiano Romano","codice":"058036","codiceCatastale":"D561","regione":"lazio","provincia":"roma","cap":"00065","coordinate":{"lat":"12.6","lng":"42.166666666"}},{"nome":"Filacciano","codice":"058037","codiceCatastale":"D586","regione":"lazio","provincia":"roma","cap":"00060","coordinate":{"lat":"12.600833333","lng":"42.255833333"}},{"nome":"Filettino","codice":"060034","codiceCatastale":"D591","regione":"lazio","provincia":"frosinone","cap":"03010","coordinate":{"lat":"13.333333333","lng":"41.883333333"}},{"nome":"Fiuggi","codice":"060035","codiceCatastale":"A310","regione":"lazio","provincia":"frosinone","cap":"03014","coordinate":{"lat":"13.216666666","lng":"41.8"}},{"nome":"Fiumicino","codice":"058120","codiceCatastale":"M297","regione":"lazio","provincia":"roma","cap":"00054","coordinate":{"lat":"12.233333333","lng":"41.766666666"}},{"nome":"Fondi","codice":"059007","codiceCatastale":"D662","regione":"lazio","provincia":"latina","cap":"04022","coordinate":{"lat":"13.416666666","lng":"41.35"}},{"nome":"Fontana Liri","codice":"060036","codiceCatastale":"D667","regione":"lazio","provincia":"frosinone","cap":"03035","coordinate":{"lat":"13.55","lng":"41.616666666"}},{"nome":"Fonte Nuova","codice":"058122","codiceCatastale":"M309","regione":"lazio","provincia":"roma","cap":"00013","coordinate":{"lat":"12.621944444","lng":"42.001666666"}},{"nome":"Fontechiari","codice":"060037","codiceCatastale":"D682","regione":"lazio","provincia":"frosinone","cap":"03030","coordinate":{"lat":"13.675","lng":"41.6675"}},{"nome":"Forano","codice":"057029","codiceCatastale":"D689","regione":"lazio","provincia":"rieti","cap":"02044","coordinate":{"lat":"12.6","lng":"42.3"}},{"nome":"Formello","codice":"058038","codiceCatastale":"D707","regione":"lazio","provincia":"roma","cap":"00060","coordinate":{"lat":"12.4","lng":"42.083333333"}},{"nome":"Formia","codice":"059008","codiceCatastale":"D708","regione":"lazio","provincia":"latina","cap":"04023","coordinate":{"lat":"13.606944444","lng":"41.256388888"}},{"nome":"Frascati","codice":"058039","codiceCatastale":"D773","regione":"lazio","provincia":"roma","cap":"00044","coordinate":{"lat":"12.683333333","lng":"41.816666666"}},{"nome":"Frasso Sabino","codice":"057030","codiceCatastale":"D785","regione":"lazio","provincia":"rieti","cap":"02030","coordinate":{"lat":"12.804969","lng":"42.229723"}},{"nome":"Frosinone","codice":"060038","codiceCatastale":"D810","regione":"lazio","provincia":"frosinone","cap":"03100","coordinate":{"lat":"13.35","lng":"41.633333333"}},{"nome":"Fumone","codice":"060039","codiceCatastale":"D819","regione":"lazio","provincia":"frosinone","cap":"03010","coordinate":{"lat":"13.291111111","lng":"41.725"}},{"nome":"Gaeta","codice":"059009","codiceCatastale":"D843","regione":"lazio","provincia":"latina","cap":"04024","coordinate":{"lat":"13.566666666","lng":"41.216666666"}},{"nome":"Gallese","codice":"056027","codiceCatastale":"D870","regione":"lazio","provincia":"viterbo","cap":"01035","coordinate":{"lat":"12.399722222","lng":"42.374444444"}},{"nome":"Gallicano nel Lazio","codice":"058040","codiceCatastale":"D875","regione":"lazio","provincia":"roma","cap":"00010","coordinate":{"lat":"12.816666666","lng":"41.866666666"}},{"nome":"Gallinaro","codice":"060040","codiceCatastale":"D881","regione":"lazio","provincia":"frosinone","cap":"03040","coordinate":{"lat":"13.79799","lng":"41.65502"}},{"nome":"Gavignano","codice":"058041","codiceCatastale":"D945","regione":"lazio","provincia":"roma","cap":"00030","coordinate":{"lat":"13.05","lng":"41.7"}},{"nome":"Genazzano","codice":"058042","codiceCatastale":"D964","regione":"lazio","provincia":"roma","cap":"00030","coordinate":{"lat":"12.966666666","lng":"41.833333333"}},{"nome":"Genzano di Roma","codice":"058043","codiceCatastale":"D972","regione":"lazio","provincia":"roma","cap":"00045","coordinate":{"lat":"12.6925","lng":"41.702222222"}},{"nome":"Gerano","codice":"058044","codiceCatastale":"D978","regione":"lazio","provincia":"roma","cap":"00025","coordinate":{"lat":"12.993611111","lng":"41.933333333"}},{"nome":"Giuliano di Roma","codice":"060041","codiceCatastale":"E057","regione":"lazio","provincia":"frosinone","cap":"03020","coordinate":{"lat":"13.283333333","lng":"41.533333333"}},{"nome":"Gorga","codice":"058045","codiceCatastale":"E091","regione":"lazio","provincia":"roma","cap":"00030","coordinate":{"lat":"13.116667","lng":"41.65"}},{"nome":"Gradoli","codice":"056028","codiceCatastale":"E126","regione":"lazio","provincia":"viterbo","cap":"01010","coordinate":{"lat":"11.855555555","lng":"42.644444444"}},{"nome":"Graffignano","codice":"056029","codiceCatastale":"E128","regione":"lazio","provincia":"viterbo","cap":"01020","coordinate":{"lat":"12.2025","lng":"42.573333333"}},{"nome":"Greccio","codice":"057031","codiceCatastale":"E160","regione":"lazio","provincia":"rieti","cap":"02040","coordinate":{"lat":"12.75","lng":"42.45"}},{"nome":"Grottaferrata","codice":"058046","codiceCatastale":"E204","regione":"lazio","provincia":"roma","cap":"00046","coordinate":{"lat":"12.666666666","lng":"41.8"}},{"nome":"Grotte di Castro","codice":"056030","codiceCatastale":"E210","regione":"lazio","provincia":"viterbo","cap":"01025","coordinate":{"lat":"11.873055555","lng":"42.675277777"}},{"nome":"Guarcino","codice":"060042","codiceCatastale":"E236","regione":"lazio","provincia":"frosinone","cap":"03016","coordinate":{"lat":"13.316666666","lng":"41.8"}},{"nome":"Guidonia Montecelio","codice":"058047","codiceCatastale":"E263","regione":"lazio","provincia":"roma","cap":"00012","coordinate":{"lat":"12.72614","lng":"41.99682"}},{"nome":"Ischia di Castro","codice":"056031","codiceCatastale":"E330","regione":"lazio","provincia":"viterbo","cap":"01010","coordinate":{"lat":"11.756944444","lng":"42.545"}},{"nome":"Isola del Liri","codice":"060043","codiceCatastale":"E340","regione":"lazio","provincia":"frosinone","cap":"03036","coordinate":{"lat":"13.566666666","lng":"41.683333333"}},{"nome":"Itri","codice":"059010","codiceCatastale":"E375","regione":"lazio","provincia":"latina","cap":"04020","coordinate":{"lat":"13.533333333","lng":"41.283333333"}},{"nome":"Jenne","codice":"058048","codiceCatastale":"E382","regione":"lazio","provincia":"roma","cap":"00020","coordinate":{"lat":"13.166666666","lng":"41.883333333"}},{"nome":"Labico","codice":"058049","codiceCatastale":"E392","regione":"lazio","provincia":"roma","cap":"00030","coordinate":{"lat":"12.883333333","lng":"41.783333333"}},{"nome":"Labro","codice":"057032","codiceCatastale":"E393","regione":"lazio","provincia":"rieti","cap":"02010","coordinate":{"lat":"12.800279","lng":"42.526035"}},{"nome":"Ladispoli","codice":"058116","codiceCatastale":"M212","regione":"lazio","provincia":"roma","cap":"00055","coordinate":{"lat":"12.074166666","lng":"41.954444444"}},{"nome":"Lanuvio","codice":"058050","codiceCatastale":"C767","regione":"lazio","provincia":"roma","cap":"00075","coordinate":{"lat":"12.7","lng":"41.683333333"}},{"nome":"Lariano","codice":"058115","codiceCatastale":"M207","regione":"lazio","provincia":"roma","cap":"00040","coordinate":{"lat":"12.833333333","lng":"41.733333333"}},{"nome":"Latera","codice":"056032","codiceCatastale":"E467","regione":"lazio","provincia":"viterbo","cap":"01010","coordinate":{"lat":"11.828333333","lng":"42.63"}},{"nome":"Latina","codice":"059011","codiceCatastale":"E472","regione":"lazio","provincia":"latina","cap":"04013","coordinate":{"lat":"12.9037","lng":"41.467597222"}},{"nome":"Lenola","codice":"059012","codiceCatastale":"E527","regione":"lazio","provincia":"latina","cap":"04025","coordinate":{"lat":"13.4625","lng":"41.409166666"}},{"nome":"Leonessa","codice":"057033","codiceCatastale":"E535","regione":"lazio","provincia":"rieti","cap":"02016","coordinate":{"lat":"12.95996","lng":"42.56855"}},{"nome":"Licenza","codice":"058051","codiceCatastale":"E576","regione":"lazio","provincia":"roma","cap":"00026","coordinate":{"lat":"12.901569444","lng":"42.074244444"}},{"nome":"Longone Sabino","codice":"057034","codiceCatastale":"E681","regione":"lazio","provincia":"rieti","cap":"02020","coordinate":{"lat":"12.966666666","lng":"42.266666666"}},{"nome":"Lubriano","codice":"056033","codiceCatastale":"E713","regione":"lazio","provincia":"viterbo","cap":"01020","coordinate":{"lat":"12.109444444","lng":"42.636944444"}},{"nome":"Maenza","codice":"059013","codiceCatastale":"E798","regione":"lazio","provincia":"latina","cap":"04010","coordinate":{"lat":"13.183333333","lng":"41.516666666"}},{"nome":"Magliano Romano","codice":"058052","codiceCatastale":"E813","regione":"lazio","provincia":"roma","cap":"00060","coordinate":{"lat":"12.435833333","lng":"42.16"}},{"nome":"Magliano Sabina","codice":"057035","codiceCatastale":"E812","regione":"lazio","provincia":"rieti","cap":"02046","coordinate":{"lat":"12.483333333","lng":"42.366666666"}},{"nome":"Mandela","codice":"058053","codiceCatastale":"B632","regione":"lazio","provincia":"roma","cap":"00020","coordinate":{"lat":"12.923055555","lng":"42.03"}},{"nome":"Manziana","codice":"058054","codiceCatastale":"E900","regione":"lazio","provincia":"roma","cap":"00066","coordinate":{"lat":"12.133333333","lng":"42.133333333"}},{"nome":"Marano Equo","codice":"058055","codiceCatastale":"E908","regione":"lazio","provincia":"roma","cap":"00020","coordinate":{"lat":"13.016666666","lng":"41.993888888"}},{"nome":"Marcellina","codice":"058056","codiceCatastale":"E924","regione":"lazio","provincia":"roma","cap":"00010","coordinate":{"lat":"12.806944444","lng":"42.023611111"}},{"nome":"Marcetelli","codice":"057036","codiceCatastale":"E927","regione":"lazio","provincia":"rieti","cap":"02020","coordinate":{"lat":"13.05","lng":"42.233333333"}},{"nome":"Marino","codice":"058057","codiceCatastale":"E958","regione":"lazio","provincia":"roma","cap":"00047","coordinate":{"lat":"12.666666666","lng":"41.766666666"}},{"nome":"Marta","codice":"056034","codiceCatastale":"E978","regione":"lazio","provincia":"viterbo","cap":"01010","coordinate":{"lat":"11.925833333","lng":"42.534444444"}},{"nome":"Mazzano Romano","codice":"058058","codiceCatastale":"F064","regione":"lazio","provincia":"roma","cap":"00060","coordinate":{"lat":"12.3975","lng":"42.205555555"}},{"nome":"Mentana","codice":"058059","codiceCatastale":"F127","regione":"lazio","provincia":"roma","cap":"00013","coordinate":{"lat":"12.6444485","lng":"42.033728"}},{"nome":"Micigliano","codice":"057037","codiceCatastale":"F193","regione":"lazio","provincia":"rieti","cap":"02010","coordinate":{"lat":"13.05","lng":"42.45"}},{"nome":"Minturno","codice":"059014","codiceCatastale":"F224","regione":"lazio","provincia":"latina","cap":"04026","coordinate":{"lat":"13.75","lng":"41.266666666"}},{"nome":"Mompeo","codice":"057038","codiceCatastale":"F319","regione":"lazio","provincia":"rieti","cap":"02040","coordinate":{"lat":"12.7518","lng":"42.249"}},{"nome":"Montalto di Castro","codice":"056035","codiceCatastale":"F419","regione":"lazio","provincia":"viterbo","cap":"01014","coordinate":{"lat":"11.607777777","lng":"42.351388888"}},{"nome":"Montasola","codice":"057039","codiceCatastale":"F430","regione":"lazio","provincia":"rieti","cap":"02040","coordinate":{"lat":"12.683333333","lng":"42.383333333"}},{"nome":"Monte Compatri","codice":"058060","codiceCatastale":"F477","regione":"lazio","provincia":"roma","cap":"00077","coordinate":{"lat":"12.737222222","lng":"41.808055555"}},{"nome":"Monte Porzio Catone","codice":"058064","codiceCatastale":"F590","regione":"lazio","provincia":"roma","cap":"00078","coordinate":{"lat":"12.716666666","lng":"41.816666666"}},{"nome":"Monte Romano","codice":"056037","codiceCatastale":"F603","regione":"lazio","provincia":"viterbo","cap":"01010","coordinate":{"lat":"11.898611111","lng":"42.268055555"}},{"nome":"Monte San Biagio","codice":"059015","codiceCatastale":"F616","regione":"lazio","provincia":"latina","cap":"04020","coordinate":{"lat":"13.35","lng":"41.35"}},{"nome":"Monte San Giovanni Campano","codice":"060044","codiceCatastale":"F620","regione":"lazio","provincia":"frosinone","cap":"03025","coordinate":{"lat":"13.516666666","lng":"41.633333333"}},{"nome":"Monte San Giovanni in Sabina","codice":"057043","codiceCatastale":"F619","regione":"lazio","provincia":"rieti","cap":"02040","coordinate":{"lat":"12.783333333","lng":"42.333333333"}},{"nome":"Montebuono","codice":"057040","codiceCatastale":"F446","regione":"lazio","provincia":"rieti","cap":"02040","coordinate":{"lat":"12.59721","lng":"42.3677"}},{"nome":"Montefiascone","codice":"056036","codiceCatastale":"F499","regione":"lazio","provincia":"viterbo","cap":"01027","coordinate":{"lat":"12.033333333","lng":"42.533333333"}},{"nome":"Monteflavio","codice":"058061","codiceCatastale":"F504","regione":"lazio","provincia":"roma","cap":"00010","coordinate":{"lat":"12.830833333","lng":"42.108333333"}},{"nome":"Montelanico","codice":"058062","codiceCatastale":"F534","regione":"lazio","provincia":"roma","cap":"00030","coordinate":{"lat":"13.039722222","lng":"41.65"}},{"nome":"Monteleone Sabino","codice":"057041","codiceCatastale":"F541","regione":"lazio","provincia":"rieti","cap":"02033","coordinate":{"lat":"12.85","lng":"42.233333333"}},{"nome":"Montelibretti","codice":"058063","codiceCatastale":"F545","regione":"lazio","provincia":"roma","cap":"00010","coordinate":{"lat":"12.733333333","lng":"42.133333333"}},{"nome":"Montenero Sabino","codice":"057042","codiceCatastale":"F579","regione":"lazio","provincia":"rieti","cap":"02040","coordinate":{"lat":"12.816666666","lng":"42.283333333"}},{"nome":"Monterosi","codice":"056038","codiceCatastale":"F606","regione":"lazio","provincia":"viterbo","cap":"01030","coordinate":{"lat":"12.30842","lng":"42.19698"}},{"nome":"Monterotondo","codice":"058065","codiceCatastale":"F611","regione":"lazio","provincia":"roma","cap":"00015","coordinate":{}},{"nome":"Montopoli di Sabina","codice":"057044","codiceCatastale":"F687","regione":"lazio","provincia":"rieti","cap":"02034","coordinate":{"lat":"12.683333333","lng":"42.25"}},{"nome":"Montorio Romano","codice":"058066","codiceCatastale":"F692","regione":"lazio","provincia":"roma","cap":"00010","coordinate":{"lat":"12.807777777","lng":"42.137777777"}},{"nome":"Moricone","codice":"058067","codiceCatastale":"F730","regione":"lazio","provincia":"roma","cap":"00010","coordinate":{"lat":"12.77234","lng":"42.11661"}},{"nome":"Morlupo","codice":"058068","codiceCatastale":"F734","regione":"lazio","provincia":"roma","cap":"00067","coordinate":{"lat":"12.504672222","lng":"42.143461111"}},{"nome":"Morolo","codice":"060045","codiceCatastale":"F740","regione":"lazio","provincia":"frosinone","cap":"03017","coordinate":{"lat":"13.2","lng":"41.633333333"}},{"nome":"Morro Reatino","codice":"057045","codiceCatastale":"F746","regione":"lazio","provincia":"rieti","cap":"02010","coordinate":{"lat":"12.833333333","lng":"42.533333333"}},{"nome":"Nazzano","codice":"058069","codiceCatastale":"F857","regione":"lazio","provincia":"roma","cap":"00060","coordinate":{"lat":"12.5944","lng":"42.23018"}},{"nome":"Nemi","codice":"058070","codiceCatastale":"F865","regione":"lazio","provincia":"roma","cap":"00040","coordinate":{"lat":"12.71809","lng":"41.72185"}},{"nome":"Nepi","codice":"056039","codiceCatastale":"F868","regione":"lazio","provincia":"viterbo","cap":"01036","coordinate":{"lat":"12.346388888","lng":"42.243611111"}},{"nome":"Nerola","codice":"058071","codiceCatastale":"F871","regione":"lazio","provincia":"roma","cap":"00017","coordinate":{"lat":"12.786944444","lng":"42.160833333"}},{"nome":"Nespolo","codice":"057046","codiceCatastale":"F876","regione":"lazio","provincia":"rieti","cap":"02020","coordinate":{"lat":"13.066667","lng":"42.15"}},{"nome":"Nettuno","codice":"058072","codiceCatastale":"F880","regione":"lazio","provincia":"roma","cap":"00048","coordinate":{"lat":"12.666667","lng":"41.466667"}},{"nome":"Norma","codice":"059016","codiceCatastale":"F937","regione":"lazio","provincia":"latina","cap":"04010","coordinate":{"lat":"12.966666666","lng":"41.583333333"}},{"nome":"Olevano Romano","codice":"058073","codiceCatastale":"G022","regione":"lazio","provincia":"roma","cap":"00035","coordinate":{"lat":"13.031944444","lng":"41.860555555"}},{"nome":"Onano","codice":"056040","codiceCatastale":"G065","regione":"lazio","provincia":"viterbo","cap":"01010","coordinate":{"lat":"11.816944444","lng":"42.692222222"}},{"nome":"Oriolo Romano","codice":"056041","codiceCatastale":"G111","regione":"lazio","provincia":"viterbo","cap":"01010","coordinate":{"lat":"12.1378","lng":"42.1578"}},{"nome":"Orte","codice":"056042","codiceCatastale":"G135","regione":"lazio","provincia":"viterbo","cap":"01028","coordinate":{"lat":"12.386111111","lng":"42.460277777"}},{"nome":"Orvinio","codice":"057047","codiceCatastale":"B595","regione":"lazio","provincia":"rieti","cap":"02035","coordinate":{"lat":"12.933333333","lng":"42.133333333"}},{"nome":"Paganico Sabino","codice":"057048","codiceCatastale":"G232","regione":"lazio","provincia":"rieti","cap":"02020","coordinate":{"lat":"12.997777777","lng":"42.190555555"}},{"nome":"Palestrina","codice":"058074","codiceCatastale":"G274","regione":"lazio","provincia":"roma","cap":"00036","coordinate":{"lat":"12.9","lng":"41.833333333"}},{"nome":"Paliano","codice":"060046","codiceCatastale":"G276","regione":"lazio","provincia":"frosinone","cap":"03018","coordinate":{"lat":"13.05","lng":"41.8"}},{"nome":"Palombara Sabina","codice":"058075","codiceCatastale":"G293","regione":"lazio","provincia":"roma","cap":"00018","coordinate":{"lat":"12.766666666","lng":"42.066666666"}},{"nome":"Pastena","codice":"060047","codiceCatastale":"G362","regione":"lazio","provincia":"frosinone","cap":"03020","coordinate":{"lat":"13.491111111","lng":"41.468055555"}},{"nome":"Patrica","codice":"060048","codiceCatastale":"G374","regione":"lazio","provincia":"frosinone","cap":"03010","coordinate":{"lat":"13.25","lng":"41.583333333"}},{"nome":"Percile","codice":"058076","codiceCatastale":"G444","regione":"lazio","provincia":"roma","cap":"00020","coordinate":{"lat":"12.908611111","lng":"42.094722222"}},{"nome":"Pescorocchiano","codice":"057049","codiceCatastale":"G498","regione":"lazio","provincia":"rieti","cap":"02024","coordinate":{"lat":"13.1478458","lng":"42.2066319"}},{"nome":"Pescosolido","codice":"060049","codiceCatastale":"G500","regione":"lazio","provincia":"frosinone","cap":"03030","coordinate":{"lat":"13.6575","lng":"41.749166666"}},{"nome":"Petrella Salto","codice":"057050","codiceCatastale":"G513","regione":"lazio","provincia":"rieti","cap":"02025","coordinate":{"lat":"13.066666666","lng":"42.3"}},{"nome":"Piansano","codice":"056043","codiceCatastale":"G571","regione":"lazio","provincia":"viterbo","cap":"01010","coordinate":{"lat":"11.83","lng":"42.523055555"}},{"nome":"Picinisco","codice":"060050","codiceCatastale":"G591","regione":"lazio","provincia":"frosinone","cap":"03040","coordinate":{"lat":"13.866666666","lng":"41.65"}},{"nome":"Pico","codice":"060051","codiceCatastale":"G592","regione":"lazio","provincia":"frosinone","cap":"03020","coordinate":{"lat":"13.561666666","lng":"41.451388888"}},{"nome":"Piedimonte San Germano","codice":"060052","codiceCatastale":"G598","regione":"lazio","provincia":"frosinone","cap":"03030","coordinate":{"lat":"13.733333333","lng":"41.5"}},{"nome":"Piglio","codice":"060053","codiceCatastale":"G659","regione":"lazio","provincia":"frosinone","cap":"03010","coordinate":{"lat":"13.141666666","lng":"41.828055555"}},{"nome":"Pignataro Interamna","codice":"060054","codiceCatastale":"G662","regione":"lazio","provincia":"frosinone","cap":"03040","coordinate":{"lat":"13.783333333","lng":"41.433333333"}},{"nome":"Pisoniano","codice":"058077","codiceCatastale":"G704","regione":"lazio","provincia":"roma","cap":"00020","coordinate":{"lat":"12.958333333","lng":"41.907777777"}},{"nome":"Pofi","codice":"060055","codiceCatastale":"G749","regione":"lazio","provincia":"frosinone","cap":"03026","coordinate":{"lat":"13.416666666","lng":"41.566666666"}},{"nome":"Poggio Bustone","codice":"057051","codiceCatastale":"G756","regione":"lazio","provincia":"rieti","cap":"02018","coordinate":{"lat":"12.883333333","lng":"42.5"}},{"nome":"Poggio Catino","codice":"057052","codiceCatastale":"G757","regione":"lazio","provincia":"rieti","cap":"02040","coordinate":{"lat":"12.7","lng":"42.3"}},{"nome":"Poggio Mirteto","codice":"057053","codiceCatastale":"G763","regione":"lazio","provincia":"rieti","cap":"02047","coordinate":{"lat":"12.688611111","lng":"42.267222222"}},{"nome":"Poggio Moiano","codice":"057054","codiceCatastale":"G764","regione":"lazio","provincia":"rieti","cap":"02037","coordinate":{"lat":"12.883333333","lng":"42.2"}},{"nome":"Poggio Nativo","codice":"057055","codiceCatastale":"G765","regione":"lazio","provincia":"rieti","cap":"02030","coordinate":{"lat":"12.8","lng":"42.216666666"}},{"nome":"Poggio San Lorenzo","codice":"057056","codiceCatastale":"G770","regione":"lazio","provincia":"rieti","cap":"02030","coordinate":{"lat":"12.85","lng":"42.25"}},{"nome":"Poli","codice":"058078","codiceCatastale":"G784","regione":"lazio","provincia":"roma","cap":"00010","coordinate":{"lat":"12.883333333","lng":"41.883333333"}},{"nome":"Pomezia","codice":"058079","codiceCatastale":"G811","regione":"lazio","provincia":"roma","cap":"00071","coordinate":{"lat":"12.502083333","lng":"41.669305555"}},{"nome":"Pontecorvo","codice":"060056","codiceCatastale":"G838","regione":"lazio","provincia":"frosinone","cap":"03037","coordinate":{"lat":"13.6676","lng":"41.4626"}},{"nome":"Pontinia","codice":"059017","codiceCatastale":"G865","regione":"lazio","provincia":"latina","cap":"04014","coordinate":{"lat":"13.04434","lng":"41.4083"}},{"nome":"Ponza","codice":"059018","codiceCatastale":"G871","regione":"lazio","provincia":"latina","cap":"04027","coordinate":{"lat":"12.966666666","lng":"40.9"}},{"nome":"Ponzano Romano","codice":"058080","codiceCatastale":"G874","regione":"lazio","provincia":"roma","cap":"00060","coordinate":{"lat":"12.571666666","lng":"42.258055555"}},{"nome":"Posta","codice":"057057","codiceCatastale":"G934","regione":"lazio","provincia":"rieti","cap":"02019","coordinate":{"lat":"13.1","lng":"42.516667"}},{"nome":"Posta Fibreno","codice":"060057","codiceCatastale":"G935","regione":"lazio","provincia":"frosinone","cap":"03030","coordinate":{"lat":"13.7","lng":"41.7"}},{"nome":"Pozzaglia Sabina","codice":"057058","codiceCatastale":"G951","regione":"lazio","provincia":"rieti","cap":"02030","coordinate":{"lat":"12.966666666","lng":"42.166666666"}},{"nome":"Priverno","codice":"059019","codiceCatastale":"G698","regione":"lazio","provincia":"latina","cap":"04015","coordinate":{"lat":"13.183333333","lng":"41.466666666"}},{"nome":"Proceno","codice":"056044","codiceCatastale":"H071","regione":"lazio","provincia":"viterbo","cap":"01020","coordinate":{"lat":"11.830555555","lng":"42.758055555"}},{"nome":"Prossedi","codice":"059020","codiceCatastale":"H076","regione":"lazio","provincia":"latina","cap":"04010","coordinate":{"lat":"13.266666666","lng":"41.516666666"}},{"nome":"Riano","codice":"058081","codiceCatastale":"H267","regione":"lazio","provincia":"roma","cap":"00060","coordinate":{"lat":"12.522777777","lng":"42.091111111"}},{"nome":"Rieti","codice":"057059","codiceCatastale":"H282","regione":"lazio","provincia":"rieti","cap":"02100","coordinate":{"lat":"12.856702","lng":"42.40443"}},{"nome":"Rignano Flaminio","codice":"058082","codiceCatastale":"H288","regione":"lazio","provincia":"roma","cap":"00068","coordinate":{"lat":"12.483333333","lng":"42.2"}},{"nome":"Riofreddo","codice":"058083","codiceCatastale":"H300","regione":"lazio","provincia":"roma","cap":"00020","coordinate":{"lat":"12.99661","lng":"42.05875"}},{"nome":"Ripi","codice":"060058","codiceCatastale":"H324","regione":"lazio","provincia":"frosinone","cap":"03027","coordinate":{"lat":"13.433333333","lng":"41.616666666"}},{"nome":"Rivodutri","codice":"057060","codiceCatastale":"H354","regione":"lazio","provincia":"rieti","cap":"02010","coordinate":{"lat":"12.85","lng":"42.516666666"}},{"nome":"Rocca Canterano","codice":"058084","codiceCatastale":"H387","regione":"lazio","provincia":"roma","cap":"00020","coordinate":{"lat":"13.016666666","lng":"41.95"}},{"nome":"Rocca d'Arce","codice":"060059","codiceCatastale":"H393","regione":"lazio","provincia":"frosinone","cap":"03030","coordinate":{"lat":"13.583333333","lng":"41.583333333"}},{"nome":"Rocca di Cave","codice":"058085","codiceCatastale":"H401","regione":"lazio","provincia":"roma","cap":"00030","coordinate":{"lat":"12.95","lng":"41.85"}},{"nome":"Rocca di Papa","codice":"058086","codiceCatastale":"H404","regione":"lazio","provincia":"roma","cap":"00040","coordinate":{"lat":"12.716666666","lng":"41.766666666"}},{"nome":"Rocca Massima","codice":"059022","codiceCatastale":"H421","regione":"lazio","provincia":"latina","cap":"04010","coordinate":{"lat":"12.92063","lng":"41.67833"}},{"nome":"Rocca Priora","codice":"058088","codiceCatastale":"H432","regione":"lazio","provincia":"roma","cap":"00040","coordinate":{"lat":"12.766666666","lng":"41.783333333"}},{"nome":"Rocca Santo Stefano","codice":"058089","codiceCatastale":"H441","regione":"lazio","provincia":"roma","cap":"00030","coordinate":{"lat":"13.02379","lng":"41.91052"}},{"nome":"Rocca Sinibalda","codice":"057062","codiceCatastale":"H446","regione":"lazio","provincia":"rieti","cap":"02026","coordinate":{"lat":"12.933333333","lng":"42.266666666"}},{"nome":"Roccagiovine","codice":"058087","codiceCatastale":"H411","regione":"lazio","provincia":"roma","cap":"00020","coordinate":{"lat":"12.9","lng":"42.05"}},{"nome":"Roccagorga","codice":"059021","codiceCatastale":"H413","regione":"lazio","provincia":"latina","cap":"04010","coordinate":{"lat":"13.15","lng":"41.533333333"}},{"nome":"Roccantica","codice":"057061","codiceCatastale":"H427","regione":"lazio","provincia":"rieti","cap":"02040","coordinate":{"lat":"12.7","lng":"42.316666666"}},{"nome":"Roccasecca","codice":"060060","codiceCatastale":"H443","regione":"lazio","provincia":"frosinone","cap":"03038","coordinate":{"lat":"13.666666666","lng":"41.55"}},{"nome":"Roccasecca dei Volsci","codice":"059023","codiceCatastale":"H444","regione":"lazio","provincia":"latina","cap":"04010","coordinate":{"lat":"13.216666666","lng":"41.483333333"}},{"nome":"Roiate","codice":"058090","codiceCatastale":"H494","regione":"lazio","provincia":"roma","cap":"00030","coordinate":{"lat":"13.066666666","lng":"41.866666666"}},{"nome":"Roma","codice":"058091","codiceCatastale":"H501","regione":"lazio","provincia":"roma","cap":"00118","coordinate":{"lat":"12.482777777","lng":"41.893055555"}},{"nome":"Ronciglione","codice":"056045","codiceCatastale":"H534","regione":"lazio","provincia":"viterbo","cap":"01037","coordinate":{"lat":"12.214722222","lng":"42.289444444"}},{"nome":"Roviano","codice":"058092","codiceCatastale":"H618","regione":"lazio","provincia":"roma","cap":"00027","coordinate":{"lat":"12.99436","lng":"42.02575"}},{"nome":"Sabaudia","codice":"059024","codiceCatastale":"H647","regione":"lazio","provincia":"latina","cap":"04016","coordinate":{"lat":"13.02477","lng":"41.29985"}},{"nome":"Sacrofano","codice":"058093","codiceCatastale":"H658","regione":"lazio","provincia":"roma","cap":"00060","coordinate":{"lat":"12.45","lng":"42.1"}},{"nome":"Salisano","codice":"057063","codiceCatastale":"H713","regione":"lazio","provincia":"rieti","cap":"02040","coordinate":{"lat":"12.75","lng":"42.266666666"}},{"nome":"Sambuci","codice":"058094","codiceCatastale":"H745","regione":"lazio","provincia":"roma","cap":"00020","coordinate":{"lat":"12.933333333","lng":"41.983333333"}},{"nome":"San Biagio Saracinisco","codice":"060061","codiceCatastale":"H779","regione":"lazio","provincia":"frosinone","cap":"03040","coordinate":{"lat":"13.933333333","lng":"41.616666666"}},{"nome":"San Cesareo","codice":"058119","codiceCatastale":"M295","regione":"lazio","provincia":"roma","cap":"00030","coordinate":{"lat":"12.8","lng":"41.816666666"}},{"nome":"San Donato Val di Comino","codice":"060062","codiceCatastale":"H824","regione":"lazio","provincia":"frosinone","cap":"03046","coordinate":{"lat":"13.816666666","lng":"41.7"}},{"nome":"San Felice Circeo","codice":"059025","codiceCatastale":"H836","regione":"lazio","provincia":"latina","cap":"04017","coordinate":{"lat":"13.095555555","lng":"41.235277777"}},{"nome":"San Giorgio a Liri","codice":"060063","codiceCatastale":"H880","regione":"lazio","provincia":"frosinone","cap":"03047","coordinate":{"lat":"13.766666666","lng":"41.4"}},{"nome":"San Giovanni Incarico","codice":"060064","codiceCatastale":"H917","regione":"lazio","provincia":"frosinone","cap":"03028","coordinate":{"lat":"13.55","lng":"41.5"}},{"nome":"San Gregorio da Sassola","codice":"058095","codiceCatastale":"H942","regione":"lazio","provincia":"roma","cap":"00010","coordinate":{"lat":"12.866666666","lng":"41.916666666"}},{"nome":"San Lorenzo Nuovo","codice":"056047","codiceCatastale":"H969","regione":"lazio","provincia":"viterbo","cap":"01020","coordinate":{"lat":"11.9075","lng":"42.6875"}},{"nome":"San Polo dei Cavalieri","codice":"058096","codiceCatastale":"I125","regione":"lazio","provincia":"roma","cap":"00010","coordinate":{"lat":"12.833333333","lng":"42.016666666"}},{"nome":"San Vito Romano","codice":"058100","codiceCatastale":"I400","regione":"lazio","provincia":"roma","cap":"00030","coordinate":{"lat":"12.983333333","lng":"41.883333333"}},{"nome":"San Vittore del Lazio","codice":"060070","codiceCatastale":"I408","regione":"lazio","provincia":"frosinone","cap":"03040","coordinate":{"lat":"13.933333333","lng":"41.466666666"}},{"nome":"Sant'Ambrogio sul Garigliano","codice":"060065","codiceCatastale":"I256","regione":"lazio","provincia":"frosinone","cap":"03040","coordinate":{"lat":"13.866666666","lng":"41.383333333"}},{"nome":"Sant'Andrea del Garigliano","codice":"060066","codiceCatastale":"I265","regione":"lazio","provincia":"frosinone","cap":"03040","coordinate":{"lat":"13.841666666","lng":"41.368055555"}},{"nome":"Sant'Angelo Romano","codice":"058098","codiceCatastale":"I284","regione":"lazio","provincia":"roma","cap":"00010","coordinate":{"lat":"12.716666666","lng":"42.033333333"}},{"nome":"Sant'Apollinare","codice":"060067","codiceCatastale":"I302","regione":"lazio","provincia":"frosinone","cap":"03048","coordinate":{"lat":"13.833333","lng":"41.4"}},{"nome":"Sant'Elia Fiumerapido","codice":"060068","codiceCatastale":"I321","regione":"lazio","provincia":"frosinone","cap":"03049","coordinate":{"lat":"13.866666666","lng":"41.55"}},{"nome":"Sant'Oreste","codice":"058099","codiceCatastale":"I352","regione":"lazio","provincia":"roma","cap":"00060","coordinate":{"lat":"12.516666666","lng":"42.233333333"}},{"nome":"Santa Marinella","codice":"058097","codiceCatastale":"I255","regione":"lazio","provincia":"roma","cap":"00058","coordinate":{"lat":"11.85","lng":"42.033333333"}},{"nome":"Santi Cosma e Damiano","codice":"059026","codiceCatastale":"I339","regione":"lazio","provincia":"latina","cap":"04020","coordinate":{"lat":"13.816666666","lng":"41.3"}},{"nome":"Santopadre","codice":"060069","codiceCatastale":"I351","regione":"lazio","provincia":"frosinone","cap":"03030","coordinate":{"lat":"13.633333333","lng":"41.6"}},{"nome":"Saracinesco","codice":"058101","codiceCatastale":"I424","regione":"lazio","provincia":"roma","cap":"00020","coordinate":{"lat":"12.95","lng":"42.0"}},{"nome":"Scandriglia","codice":"057064","codiceCatastale":"I499","regione":"lazio","provincia":"rieti","cap":"02038","coordinate":{"lat":"12.85","lng":"42.166666666"}},{"nome":"Segni","codice":"058102","codiceCatastale":"I573","regione":"lazio","provincia":"roma","cap":"00037","coordinate":{"lat":"13.016666666","lng":"41.683333333"}},{"nome":"Selci","codice":"057065","codiceCatastale":"I581","regione":"lazio","provincia":"rieti","cap":"02040","coordinate":{"lat":"12.616666666","lng":"42.316666666"}},{"nome":"Sermoneta","codice":"059027","codiceCatastale":"I634","regione":"lazio","provincia":"latina","cap":"04013","coordinate":{"lat":"12.983333333","lng":"41.55"}},{"nome":"Serrone","codice":"060071","codiceCatastale":"I669","regione":"lazio","provincia":"frosinone","cap":"03010","coordinate":{"lat":"13.09519","lng":"41.84212"}},{"nome":"Settefrati","codice":"060072","codiceCatastale":"I697","regione":"lazio","provincia":"frosinone","cap":"03040","coordinate":{"lat":"13.850011","lng":"41.669624"}},{"nome":"Sezze","codice":"059028","codiceCatastale":"I712","regione":"lazio","provincia":"latina","cap":"04018","coordinate":{"lat":"13.066666666","lng":"41.5"}},{"nome":"Sgurgola","codice":"060073","codiceCatastale":"I716","regione":"lazio","provincia":"frosinone","cap":"03010","coordinate":{"lat":"13.15","lng":"41.666666666"}},{"nome":"Sonnino","codice":"059029","codiceCatastale":"I832","regione":"lazio","provincia":"latina","cap":"04010","coordinate":{"lat":"13.241397222","lng":"41.414458333"}},{"nome":"Sora","codice":"060074","codiceCatastale":"I838","regione":"lazio","provincia":"frosinone","cap":"03039","coordinate":{"lat":"13.616666666","lng":"41.716666666"}},{"nome":"Soriano nel Cimino","codice":"056048","codiceCatastale":"I855","regione":"lazio","provincia":"viterbo","cap":"01038","coordinate":{"lat":"12.234166666","lng":"42.419444444"}},{"nome":"Sperlonga","codice":"059030","codiceCatastale":"I892","regione":"lazio","provincia":"latina","cap":"04029","coordinate":{"lat":"13.433333333","lng":"41.266666666"}},{"nome":"Spigno Saturnia","codice":"059031","codiceCatastale":"I902","regione":"lazio","provincia":"latina","cap":"04020","coordinate":{"lat":"13.733333333","lng":"41.3"}},{"nome":"Stimigliano","codice":"057066","codiceCatastale":"I959","regione":"lazio","provincia":"rieti","cap":"02048","coordinate":{"lat":"12.566666666","lng":"42.3"}},{"nome":"Strangolagalli","codice":"060075","codiceCatastale":"I973","regione":"lazio","provincia":"frosinone","cap":"03020","coordinate":{"lat":"13.4918","lng":"41.60075"}},{"nome":"Subiaco","codice":"058103","codiceCatastale":"I992","regione":"lazio","provincia":"roma","cap":"00028","coordinate":{"lat":"13.1","lng":"41.933333333"}},{"nome":"Supino","codice":"060076","codiceCatastale":"L009","regione":"lazio","provincia":"frosinone","cap":"03019","coordinate":{"lat":"13.233333333","lng":"41.616666666"}},{"nome":"Sutri","codice":"056049","codiceCatastale":"L017","regione":"lazio","provincia":"viterbo","cap":"01015","coordinate":{"lat":"12.215833333","lng":"42.247777777"}},{"nome":"Tarano","codice":"057067","codiceCatastale":"L046","regione":"lazio","provincia":"rieti","cap":"02040","coordinate":{"lat":"12.6","lng":"42.35"}},{"nome":"Tarquinia","codice":"056050","codiceCatastale":"D024","regione":"lazio","provincia":"viterbo","cap":"01016","coordinate":{"lat":"11.756111111","lng":"42.249166666"}},{"nome":"Terelle","codice":"060077","codiceCatastale":"L105","regione":"lazio","provincia":"frosinone","cap":"03040","coordinate":{"lat":"13.783333333","lng":"41.55"}},{"nome":"Terracina","codice":"059032","codiceCatastale":"L120","regione":"lazio","provincia":"latina","cap":"04019","coordinate":{"lat":"13.25","lng":"41.283333333"}},{"nome":"Tessennano","codice":"056051","codiceCatastale":"L150","regione":"lazio","provincia":"viterbo","cap":"01010","coordinate":{"lat":"11.791111111","lng":"42.479166666"}},{"nome":"Tivoli","codice":"058104","codiceCatastale":"L182","regione":"lazio","provincia":"roma","cap":"00011","coordinate":{"lat":"12.8","lng":"41.966666666"}},{"nome":"Toffia","codice":"057068","codiceCatastale":"L189","regione":"lazio","provincia":"rieti","cap":"02039","coordinate":{"lat":"12.75","lng":"42.216666666"}},{"nome":"Tolfa","codice":"058105","codiceCatastale":"L192","regione":"lazio","provincia":"roma","cap":"00059","coordinate":{"lat":"11.933333333","lng":"42.15"}},{"nome":"Torre Cajetani","codice":"060078","codiceCatastale":"L243","regione":"lazio","provincia":"frosinone","cap":"03010","coordinate":{"lat":"13.2652","lng":"41.78672"}},{"nome":"Torri in Sabina","codice":"057070","codiceCatastale":"L286","regione":"lazio","provincia":"rieti","cap":"02049","coordinate":{"lat":"12.633333333","lng":"42.35"}},{"nome":"Torrice","codice":"060079","codiceCatastale":"L290","regione":"lazio","provincia":"frosinone","cap":"03020","coordinate":{"lat":"13.4","lng":"41.633333333"}},{"nome":"Torricella in Sabina","codice":"057069","codiceCatastale":"L293","regione":"lazio","provincia":"rieti","cap":"02030","coordinate":{"lat":"12.869722222","lng":"42.261944444"}},{"nome":"Torrita Tiberina","codice":"058106","codiceCatastale":"L302","regione":"lazio","provincia":"roma","cap":"00060","coordinate":{"lat":"12.616666666","lng":"42.233333333"}},{"nome":"Trevi nel Lazio","codice":"060080","codiceCatastale":"L398","regione":"lazio","provincia":"frosinone","cap":"03010","coordinate":{"lat":"13.251111111","lng":"41.863888888"}},{"nome":"Trevignano Romano","codice":"058107","codiceCatastale":"L401","regione":"lazio","provincia":"roma","cap":"00069","coordinate":{"lat":"12.25","lng":"42.15"}},{"nome":"Trivigliano","codice":"060081","codiceCatastale":"L437","regione":"lazio","provincia":"frosinone","cap":"03010","coordinate":{"lat":"13.266666666","lng":"41.783333333"}},{"nome":"Turania","codice":"057071","codiceCatastale":"G507","regione":"lazio","provincia":"rieti","cap":"02020","coordinate":{"lat":"13.016666666","lng":"42.133333333"}},{"nome":"Tuscania","codice":"056052","codiceCatastale":"L310","regione":"lazio","provincia":"viterbo","cap":"01017","coordinate":{"lat":"11.871944444","lng":"42.421388888"}},{"nome":"Vacone","codice":"057072","codiceCatastale":"L525","regione":"lazio","provincia":"rieti","cap":"02040","coordinate":{"lat":"12.65","lng":"42.383333333"}},{"nome":"Valentano","codice":"056053","codiceCatastale":"L569","regione":"lazio","provincia":"viterbo","cap":"01018","coordinate":{"lat":"11.826944444","lng":"42.565277777"}},{"nome":"Vallecorsa","codice":"060082","codiceCatastale":"L598","regione":"lazio","provincia":"frosinone","cap":"03020","coordinate":{"lat":"13.4","lng":"41.45"}},{"nome":"Vallemaio","codice":"060083","codiceCatastale":"L605","regione":"lazio","provincia":"frosinone","cap":"03040","coordinate":{"lat":"13.816666666","lng":"41.366666666"}},{"nome":"Vallepietra","codice":"058108","codiceCatastale":"L611","regione":"lazio","provincia":"roma","cap":"00020","coordinate":{"lat":"13.233333333","lng":"41.933333333"}},{"nome":"Vallerano","codice":"056054","codiceCatastale":"L612","regione":"lazio","provincia":"viterbo","cap":"01030","coordinate":{"lat":"12.264166666","lng":"42.385"}},{"nome":"Vallerotonda","codice":"060084","codiceCatastale":"L614","regione":"lazio","provincia":"frosinone","cap":"03040","coordinate":{"lat":"13.916666666","lng":"41.55"}},{"nome":"Vallinfreda","codice":"058109","codiceCatastale":"L625","regione":"lazio","provincia":"roma","cap":"00020","coordinate":{"lat":"12.966666666","lng":"42.083333333"}},{"nome":"Valmontone","codice":"058110","codiceCatastale":"L639","regione":"lazio","provincia":"roma","cap":"00038","coordinate":{"lat":"12.916666666","lng":"41.783333333"}},{"nome":"Varco Sabino","codice":"057073","codiceCatastale":"L676","regione":"lazio","provincia":"rieti","cap":"02020","coordinate":{"lat":"13.016666666","lng":"42.233333333"}},{"nome":"Vasanello","codice":"056055","codiceCatastale":"A701","regione":"lazio","provincia":"viterbo","cap":"01030","coordinate":{"lat":"12.3475","lng":"42.414444444"}},{"nome":"Vejano","codice":"056056","codiceCatastale":"L713","regione":"lazio","provincia":"viterbo","cap":"01010","coordinate":{"lat":"12.096388888","lng":"42.218055555"}},{"nome":"Velletri","codice":"058111","codiceCatastale":"L719","regione":"lazio","provincia":"roma","cap":"00049","coordinate":{"lat":"12.783333333","lng":"41.666666666"}},{"nome":"Ventotene","codice":"059033","codiceCatastale":"L742","regione":"lazio","provincia":"latina","cap":"04031","coordinate":{"lat":"13.433333333","lng":"40.8"}},{"nome":"Veroli","codice":"060085","codiceCatastale":"L780","regione":"lazio","provincia":"frosinone","cap":"03029","coordinate":{"lat":"13.416666666","lng":"41.683333333"}},{"nome":"Vetralla","codice":"056057","codiceCatastale":"L814","regione":"lazio","provincia":"viterbo","cap":"01019","coordinate":{"lat":"12.079166666","lng":"42.310555555"}},{"nome":"Vicalvi","codice":"060086","codiceCatastale":"L836","regione":"lazio","provincia":"frosinone","cap":"03030","coordinate":{"lat":"13.716666666","lng":"41.683333333"}},{"nome":"Vico nel Lazio","codice":"060087","codiceCatastale":"L843","regione":"lazio","provincia":"frosinone","cap":"03010","coordinate":{"lat":"13.35","lng":"41.783333333"}},{"nome":"Vicovaro","codice":"058112","codiceCatastale":"L851","regione":"lazio","provincia":"roma","cap":"00029","coordinate":{"lat":"12.89691","lng":"42.01782"}},{"nome":"Vignanello","codice":"056058","codiceCatastale":"L882","regione":"lazio","provincia":"viterbo","cap":"01039","coordinate":{"lat":"12.2775","lng":"42.384722222"}},{"nome":"Villa Latina","codice":"060088","codiceCatastale":"A081","regione":"lazio","provincia":"frosinone","cap":"03040","coordinate":{"lat":"13.833333333","lng":"41.616666666"}},{"nome":"Villa San Giovanni in Tuscia","codice":"056046","codiceCatastale":"H913","regione":"lazio","provincia":"viterbo","cap":"01010","coordinate":{"lat":"12.054166666","lng":"42.279722222"}},{"nome":"Villa Santa Lucia","codice":"060089","codiceCatastale":"L905","regione":"lazio","provincia":"frosinone","cap":"03030","coordinate":{"lat":"13.766666666","lng":"41.516666666"}},{"nome":"Villa Santo Stefano","codice":"060090","codiceCatastale":"I364","regione":"lazio","provincia":"frosinone","cap":"03020","coordinate":{"lat":"13.316666666","lng":"41.516666666"}},{"nome":"Viterbo","codice":"056059","codiceCatastale":"M082","regione":"lazio","provincia":"viterbo","cap":"01100","coordinate":{"lat":"12.104166666","lng":"42.418611111"}},{"nome":"Viticuso","codice":"060091","codiceCatastale":"M083","regione":"lazio","provincia":"frosinone","cap":"03040","coordinate":{"lat":"13.966666666","lng":"41.533333333"}},{"nome":"Vitorchiano","codice":"056060","codiceCatastale":"M086","regione":"lazio","provincia":"viterbo","cap":"01030","coordinate":{"lat":"12.173333333","lng":"42.466388888"}},{"nome":"Vivaro Romano","codice":"058113","codiceCatastale":"M095","regione":"lazio","provincia":"roma","cap":"00020","coordinate":{"lat":"13.0075","lng":"42.100555555"}},{"nome":"Zagarolo","codice":"058114","codiceCatastale":"M141","regione":"lazio","provincia":"roma","cap":"00039","coordinate":{"lat":"12.833333333","lng":"41.833333333"}}]