[{"nome":"Airole","codice":"008001","codiceCatastale":"A111","regione":"liguria","provincia":"imperia","cap":"18030","coordinate":{"lat":"7.553377777","lng":"43.871883333"}},{"nome":"Alassio","codice":"009001","codiceCatastale":"A122","regione":"liguria","provincia":"savona","cap":"17021","coordinate":{"lat":"8.173044444","lng":"44.007916666"}},{"nome":"Albenga","codice":"009002","codiceCatastale":"A145","regione":"liguria","provincia":"savona","cap":"17031","coordinate":{"lat":"8.213016666","lng":"44.049113888"}},{"nome":"Albisola Superiore","codice":"009004","codiceCatastale":"A166","regione":"liguria","provincia":"savona","cap":"17011","coordinate":{"lat":"8.510133333","lng":"44.339502777"}},{"nome":"Albissola Marina","codice":"009003","codiceCatastale":"A165","regione":"liguria","provincia":"savona","cap":"17012","coordinate":{"lat":"8.5031016","lng":"44.3272793"}},{"nome":"Altare","codice":"009005","codiceCatastale":"A226","regione":"liguria","provincia":"savona","cap":"17041","coordinate":{"lat":"8.344","lng":"44.3362"}},{"nome":"Ameglia","codice":"011001","codiceCatastale":"A261","regione":"liguria","provincia":"la spezia","cap":"19031","coordinate":{"lat":"9.957541666","lng":"44.067263888"}},{"nome":"Andora","codice":"009006","codiceCatastale":"A278","regione":"liguria","provincia":"savona","cap":"17051","coordinate":{"lat":"8.139458333","lng":"43.958555555"}},{"nome":"Apricale","codice":"008002","codiceCatastale":"A338","regione":"liguria","provincia":"imperia","cap":"18035","coordinate":{"lat":"7.660483333","lng":"43.880533333"}},{"nome":"Aquila d'Arroscia","codice":"008003","codiceCatastale":"A344","regione":"liguria","provincia":"imperia","cap":"18020","coordinate":{"lat":"8.005427777","lng":"44.083544444"}},{"nome":"Arcola","codice":"011002","codiceCatastale":"A373","regione":"liguria","provincia":"la spezia","cap":"19021","coordinate":{"lat":"9.905863888","lng":"44.114552777"}},{"nome":"Arenzano","codice":"010001","codiceCatastale":"A388","regione":"liguria","provincia":"genova","cap":"16011","coordinate":{"lat":"8.682711111","lng":"44.403527777"}},{"nome":"Armo","codice":"008004","codiceCatastale":"A418","regione":"liguria","provincia":"imperia","cap":"18026","coordinate":{"lat":"7.9147826","lng":"44.0879649"}},{"nome":"Arnasco","codice":"009007","codiceCatastale":"A422","regione":"liguria","provincia":"savona","cap":"17032","coordinate":{"lat":"8.107202777","lng":"44.077980555"}},{"nome":"Aurigo","codice":"008005","codiceCatastale":"A499","regione":"liguria","provincia":"imperia","cap":"18020","coordinate":{"lat":"7.922830555","lng":"43.982816666"}},{"nome":"Avegno","codice":"010002","codiceCatastale":"A506","regione":"liguria","provincia":"genova","cap":"16036","coordinate":{"lat":"9.158647222","lng":"44.382333333"}},{"nome":"Badalucco","codice":"008006","codiceCatastale":"A536","regione":"liguria","provincia":"imperia","cap":"18010","coordinate":{"lat":"7.846997222","lng":"43.915697222"}},{"nome":"Bajardo","codice":"008007","codiceCatastale":"A581","regione":"liguria","provincia":"imperia","cap":"18031","coordinate":{"lat":"7.718408333","lng":"43.903491666"}},{"nome":"Balestrino","codice":"009008","codiceCatastale":"A593","regione":"liguria","provincia":"savona","cap":"17020","coordinate":{"lat":"8.1715202","lng":"44.12513"}},{"nome":"Bardineto","codice":"009009","codiceCatastale":"A647","regione":"liguria","provincia":"savona","cap":"17057","coordinate":{"lat":"8.129141666","lng":"44.192088888"}},{"nome":"Bargagli","codice":"010003","codiceCatastale":"A658","regione":"liguria","provincia":"genova","cap":"16021","coordinate":{"lat":"9.088572222","lng":"44.444483333"}},{"nome":"Bergeggi","codice":"009010","codiceCatastale":"A796","regione":"liguria","provincia":"savona","cap":"17042","coordinate":{"lat":"8.44365","lng":"44.248666666"}},{"nome":"Beverino","codice":"011003","codiceCatastale":"A836","regione":"liguria","provincia":"la spezia","cap":"19020","coordinate":{"lat":"9.768694444","lng":"44.195925"}},{"nome":"Bogliasco","codice":"010004","codiceCatastale":"A922","regione":"liguria","provincia":"genova","cap":"16031","coordinate":{"lat":"9.069788888","lng":"44.378241666"}},{"nome":"Boissano","codice":"009011","codiceCatastale":"A931","regione":"liguria","provincia":"savona","cap":"17054","coordinate":{"lat":"8.221280555","lng":"44.134427777"}},{"nome":"Bolano","codice":"011004","codiceCatastale":"A932","regione":"liguria","provincia":"la spezia","cap":"19020","coordinate":{"lat":"9.895361111","lng":"44.189097222"}},{"nome":"Bonassola","codice":"011005","codiceCatastale":"A961","regione":"liguria","provincia":"la spezia","cap":"19011","coordinate":{"lat":"9.584091666","lng":"44.183436111"}},{"nome":"Bordighera","codice":"008008","codiceCatastale":"A984","regione":"liguria","provincia":"imperia","cap":"18012","coordinate":{"lat":"7.672127777","lng":"43.778897222"}},{"nome":"Borghetto d'Arroscia","codice":"008009","codiceCatastale":"A993","regione":"liguria","provincia":"imperia","cap":"18020","coordinate":{"lat":"7.981752777","lng":"44.057380555"}},{"nome":"Borghetto di Vara","codice":"011006","codiceCatastale":"A992","regione":"liguria","provincia":"la spezia","cap":"19020","coordinate":{"lat":"9.721405555","lng":"44.223755555"}},{"nome":"Borghetto Santo Spirito","codice":"009012","codiceCatastale":"A999","regione":"liguria","provincia":"savona","cap":"17052","coordinate":{"lat":"8.241358333","lng":"44.109052777"}},{"nome":"Borgio Verezzi","codice":"009013","codiceCatastale":"B005","regione":"liguria","provincia":"savona","cap":"17022","coordinate":{"lat":"8.304633333","lng":"44.160002777"}},{"nome":"Borgomaro","codice":"008010","codiceCatastale":"B020","regione":"liguria","provincia":"imperia","cap":"18021","coordinate":{"lat":"7.944802777","lng":"43.975525"}},{"nome":"Bormida","codice":"009014","codiceCatastale":"B048","regione":"liguria","provincia":"savona","cap":"17040","coordinate":{"lat":"8.233361111","lng":"44.278825"}},{"nome":"Borzonasca","codice":"010005","codiceCatastale":"B067","regione":"liguria","provincia":"genova","cap":"16041","coordinate":{"lat":"9.387063888","lng":"44.422130555"}},{"nome":"Brugnato","codice":"011007","codiceCatastale":"B214","regione":"liguria","provincia":"la spezia","cap":"19020","coordinate":{"lat":"9.725238888","lng":"44.236675"}},{"nome":"Busalla","codice":"010006","codiceCatastale":"B282","regione":"liguria","provincia":"genova","cap":"16012","coordinate":{"lat":"8.945344444","lng":"44.571044444"}},{"nome":"Cairo Montenotte","codice":"009015","codiceCatastale":"B369","regione":"liguria","provincia":"savona","cap":"17014","coordinate":{"lat":"8.277788888","lng":"44.397891666"}},{"nome":"Calice al Cornoviglio","codice":"011008","codiceCatastale":"B410","regione":"liguria","provincia":"la spezia","cap":"19020","coordinate":{"lat":"9.836388888","lng":"44.243055555"}},{"nome":"Calice Ligure","codice":"009016","codiceCatastale":"B409","regione":"liguria","provincia":"savona","cap":"17020","coordinate":{"lat":"8.294411111","lng":"44.205094444"}},{"nome":"Calizzano","codice":"009017","codiceCatastale":"B416","regione":"liguria","provincia":"savona","cap":"17057","coordinate":{"lat":"8.115402777","lng":"44.235275"}},{"nome":"Camogli","codice":"010007","codiceCatastale":"B490","regione":"liguria","provincia":"genova","cap":"16032","coordinate":{"lat":"9.155758333","lng":"44.348397222"}},{"nome":"Campo Ligure","codice":"010008","codiceCatastale":"B538","regione":"liguria","provincia":"genova","cap":"16013","coordinate":{"lat":"8.697791666","lng":"44.538088888"}},{"nome":"Campomorone","codice":"010009","codiceCatastale":"B551","regione":"liguria","provincia":"genova","cap":"16014","coordinate":{"lat":"8.8918","lng":"44.506886111"}},{"nome":"Camporosso","codice":"008011","codiceCatastale":"B559","regione":"liguria","provincia":"imperia","cap":"18033","coordinate":{"lat":"7.628433333","lng":"43.815127777"}},{"nome":"Carasco","codice":"010010","codiceCatastale":"B726","regione":"liguria","provincia":"genova","cap":"16042","coordinate":{"lat":"9.344122222","lng":"44.351716666"}},{"nome":"Caravonica","codice":"008012","codiceCatastale":"B734","regione":"liguria","provincia":"imperia","cap":"18020","coordinate":{"lat":"7.958725","lng":"43.992336111"}},{"nome":"Carcare","codice":"009018","codiceCatastale":"B748","regione":"liguria","provincia":"savona","cap":"17043","coordinate":{"lat":"8.290625","lng":"44.357894444"}},{"nome":"Carro","codice":"011009","codiceCatastale":"B838","regione":"liguria","provincia":"la spezia","cap":"19012","coordinate":{"lat":"9.6","lng":"44.266667"}},{"nome":"Carrodano","codice":"011010","codiceCatastale":"B839","regione":"liguria","provincia":"la spezia","cap":"19020","coordinate":{"lat":"9.656175","lng":"44.241847222"}},{"nome":"Casanova Lerrone","codice":"009019","codiceCatastale":"B927","regione":"liguria","provincia":"savona","cap":"17033","coordinate":{"lat":"8.048419444","lng":"44.031675"}},{"nome":"Casarza Ligure","codice":"010011","codiceCatastale":"B939","regione":"liguria","provincia":"genova","cap":"16030","coordinate":{"lat":"9.453416666","lng":"44.274722222"}},{"nome":"Casella","codice":"010012","codiceCatastale":"B956","regione":"liguria","provincia":"genova","cap":"16015","coordinate":{"lat":"8.998855555","lng":"44.534763888"}},{"nome":"Castel Vittorio","codice":"008015","codiceCatastale":"C110","regione":"liguria","provincia":"imperia","cap":"18030","coordinate":{"lat":"7.674263888","lng":"43.927855555"}},{"nome":"Castelbianco","codice":"009020","codiceCatastale":"C063","regione":"liguria","provincia":"savona","cap":"17030","coordinate":{"lat":"8.0742","lng":"44.112986111"}},{"nome":"Castellaro","codice":"008014","codiceCatastale":"C143","regione":"liguria","provincia":"imperia","cap":"18011","coordinate":{"lat":"7.86881","lng":"43.86436"}},{"nome":"Castelnuovo Magra","codice":"011011","codiceCatastale":"C240","regione":"liguria","provincia":"la spezia","cap":"19033","coordinate":{"lat":"10.017786111","lng":"44.099366666"}},{"nome":"Castelvecchio di Rocca Barbena","codice":"009021","codiceCatastale":"C276","regione":"liguria","provincia":"savona","cap":"17034","coordinate":{"lat":"8.115513888","lng":"44.130480555"}},{"nome":"Castiglione Chiavarese","codice":"010013","codiceCatastale":"C302","regione":"liguria","provincia":"genova","cap":"16030","coordinate":{"lat":"9.513636111","lng":"44.274513888"}},{"nome":"Celle Ligure","codice":"009022","codiceCatastale":"C443","regione":"liguria","provincia":"savona","cap":"17015","coordinate":{"lat":"8.545575","lng":"44.3421"}},{"nome":"Cengio","codice":"009023","codiceCatastale":"C463","regione":"liguria","provincia":"savona","cap":"17056","coordinate":{"lat":"8.208458333","lng":"44.38775"}},{"nome":"Ceranesi","codice":"010014","codiceCatastale":"C481","regione":"liguria","provincia":"genova","cap":"16014","coordinate":{"lat":"8.883961111","lng":"44.508352777"}},{"nome":"Ceriale","codice":"009024","codiceCatastale":"C510","regione":"liguria","provincia":"savona","cap":"17023","coordinate":{"lat":"8.232102777","lng":"44.096575"}},{"nome":"Ceriana","codice":"008016","codiceCatastale":"C511","regione":"liguria","provincia":"imperia","cap":"18034","coordinate":{"lat":"7.7746","lng":"43.879061111"}},{"nome":"Cervo","codice":"008017","codiceCatastale":"C559","regione":"liguria","provincia":"imperia","cap":"18010","coordinate":{"lat":"8.114341666","lng":"43.925288888"}},{"nome":"Cesio","codice":"008018","codiceCatastale":"C578","regione":"liguria","provincia":"imperia","cap":"18022","coordinate":{"lat":"7.975469444","lng":"44.007952777"}},{"nome":"Chiavari","codice":"010015","codiceCatastale":"C621","regione":"liguria","provincia":"genova","cap":"16043","coordinate":{"lat":"9.323736111","lng":"44.316411111"}},{"nome":"Chiusanico","codice":"008019","codiceCatastale":"C657","regione":"liguria","provincia":"imperia","cap":"18027","coordinate":{"lat":"7.993275","lng":"43.971158333"}},{"nome":"Chiusavecchia","codice":"008020","codiceCatastale":"C660","regione":"liguria","provincia":"imperia","cap":"18027","coordinate":{"lat":"7.983375","lng":"43.967808333"}},{"nome":"Cicagna","codice":"010016","codiceCatastale":"C673","regione":"liguria","provincia":"genova","cap":"16044","coordinate":{"lat":"9.236333333","lng":"44.408538888"}},{"nome":"Cipressa","codice":"008021","codiceCatastale":"C718","regione":"liguria","provincia":"imperia","cap":"18017","coordinate":{"lat":"7.930547222","lng":"43.851433333"}},{"nome":"Cisano sul Neva","codice":"009025","codiceCatastale":"C729","regione":"liguria","provincia":"savona","cap":"17035","coordinate":{"lat":"8.145019444","lng":"44.087322222"}},{"nome":"Civezza","codice":"008022","codiceCatastale":"C755","regione":"liguria","provincia":"imperia","cap":"18017","coordinate":{"lat":"7.95125","lng":"43.879305555"}},{"nome":"Cogoleto","codice":"010017","codiceCatastale":"C823","regione":"liguria","provincia":"genova","cap":"16016","coordinate":{"lat":"8.646183333","lng":"44.389566666"}},{"nome":"Cogorno","codice":"010018","codiceCatastale":"C826","regione":"liguria","provincia":"genova","cap":"16030","coordinate":{"lat":"9.3724611","lng":"44.3330809"}},{"nome":"Coreglia Ligure","codice":"010019","codiceCatastale":"C995","regione":"liguria","provincia":"genova","cap":"16040","coordinate":{"lat":"9.267505555","lng":"44.391877777"}},{"nome":"Cosio d'Arroscia","codice":"008023","codiceCatastale":"D087","regione":"liguria","provincia":"imperia","cap":"18023","coordinate":{"lat":"7.831158333","lng":"44.075655555"}},{"nome":"Cosseria","codice":"009026","codiceCatastale":"D095","regione":"liguria","provincia":"savona","cap":"17017","coordinate":{"lat":"8.234788888","lng":"44.368605555"}},{"nome":"Costarainera","codice":"008024","codiceCatastale":"D114","regione":"liguria","provincia":"imperia","cap":"18017","coordinate":{"lat":"7.940761111","lng":"43.854575"}},{"nome":"Crocefieschi","codice":"010020","codiceCatastale":"D175","regione":"liguria","provincia":"genova","cap":"16010","coordinate":{"lat":"9.023466666","lng":"44.584630555"}},{"nome":"Davagna","codice":"010021","codiceCatastale":"D255","regione":"liguria","provincia":"genova","cap":"16022","coordinate":{"lat":"9.089863888","lng":"44.466936111"}},{"nome":"Dego","codice":"009027","codiceCatastale":"D264","regione":"liguria","provincia":"savona","cap":"17058","coordinate":{"lat":"8.310983333","lng":"44.449319444"}},{"nome":"Deiva Marina","codice":"011012","codiceCatastale":"D265","regione":"liguria","provincia":"la spezia","cap":"19013","coordinate":{"lat":"9.516667","lng":"44.216667"}},{"nome":"Diano Arentino","codice":"008025","codiceCatastale":"D293","regione":"liguria","provincia":"imperia","cap":"18013","coordinate":{"lat":"8.042252777","lng":"43.948630555"}},{"nome":"Diano Castello","codice":"008026","codiceCatastale":"D296","regione":"liguria","provincia":"imperia","cap":"18013","coordinate":{"lat":"8.06695","lng":"43.924041666"}},{"nome":"Diano Marina","codice":"008027","codiceCatastale":"D297","regione":"liguria","provincia":"imperia","cap":"18013","coordinate":{"lat":"8.082025","lng":"43.909930555"}},{"nome":"Diano San Pietro","codice":"008028","codiceCatastale":"D298","regione":"liguria","provincia":"imperia","cap":"18013","coordinate":{"lat":"8.068691666","lng":"43.93095"}},{"nome":"Dolceacqua","codice":"008029","codiceCatastale":"D318","regione":"liguria","provincia":"imperia","cap":"18035","coordinate":{"lat":"7.623816666","lng":"43.847977777"}},{"nome":"Dolcedo","codice":"008030","codiceCatastale":"D319","regione":"liguria","provincia":"imperia","cap":"18020","coordinate":{"lat":"7.951608333","lng":"43.906888888"}},{"nome":"Erli","codice":"009028","codiceCatastale":"D424","regione":"liguria","provincia":"savona","cap":"17030","coordinate":{"lat":"8.104097222","lng":"44.137272222"}},{"nome":"Fascia","codice":"010022","codiceCatastale":"D509","regione":"liguria","provincia":"genova","cap":"16020","coordinate":{"lat":"9.2376","lng":"44.5659"}},{"nome":"Favale di Malvaro","codice":"010023","codiceCatastale":"D512","regione":"liguria","provincia":"genova","cap":"16040","coordinate":{"lat":"9.257908333","lng":"44.451997222"}},{"nome":"Finale Ligure","codice":"009029","codiceCatastale":"D600","regione":"liguria","provincia":"savona","cap":"17024","coordinate":{"lat":"8.343536111","lng":"44.169072222"}},{"nome":"Follo","codice":"011013","codiceCatastale":"D655","regione":"liguria","provincia":"la spezia","cap":"19020","coordinate":{"lat":"9.8648853","lng":"44.1604199"}},{"nome":"Fontanigorda","codice":"010024","codiceCatastale":"D677","regione":"liguria","provincia":"genova","cap":"16023","coordinate":{"lat":"9.304744444","lng":"44.546572222"}},{"nome":"Framura","codice":"011014","codiceCatastale":"D758","regione":"liguria","provincia":"la spezia","cap":"19014","coordinate":{"lat":"9.554422222","lng":"44.208661111"}},{"nome":"Garlenda","codice":"009030","codiceCatastale":"D927","regione":"liguria","provincia":"savona","cap":"17033","coordinate":{"lat":"8.097038888","lng":"44.033508333"}},{"nome":"Genova","codice":"010025","codiceCatastale":"D969","regione":"liguria","provincia":"genova","cap":"16121","coordinate":{"lat":"8.933983333","lng":"44.407186111"}},{"nome":"Giustenice","codice":"009031","codiceCatastale":"E064","regione":"liguria","provincia":"savona","cap":"17027","coordinate":{"lat":"8.246152777","lng":"44.172155555"}},{"nome":"Giusvalla","codice":"009032","codiceCatastale":"E066","regione":"liguria","provincia":"savona","cap":"17010","coordinate":{"lat":"8.393458333","lng":"44.449986111"}},{"nome":"Gorreto","codice":"010026","codiceCatastale":"E109","regione":"liguria","provincia":"genova","cap":"16020","coordinate":{"lat":"9.292433333","lng":"44.606066666"}},{"nome":"Imperia","codice":"008031","codiceCatastale":"E290","regione":"liguria","provincia":"imperia","cap":"18100","coordinate":{"lat":"8.029652777","lng":"43.886466666"}},{"nome":"Isola del Cantone","codice":"010027","codiceCatastale":"E341","regione":"liguria","provincia":"genova","cap":"16017","coordinate":{"lat":"8.956861111","lng":"44.646141666"}},{"nome":"Isolabona","codice":"008032","codiceCatastale":"E346","regione":"liguria","provincia":"imperia","cap":"18035","coordinate":{"lat":"7.638897222","lng":"43.879444444"}},{"nome":"La Spezia","codice":"011015","codiceCatastale":"E463","regione":"liguria","provincia":"la spezia","cap":"19131","coordinate":{"lat":"9.828880555","lng":"44.108044444"}},{"nome":"Laigueglia","codice":"009033","codiceCatastale":"E414","regione":"liguria","provincia":"savona","cap":"17053","coordinate":{"lat":"8.158311111","lng":"43.974511111"}},{"nome":"Lavagna","codice":"010028","codiceCatastale":"E488","regione":"liguria","provincia":"genova","cap":"16033","coordinate":{"lat":"9.3417059","lng":"44.3121536"}},{"nome":"Leivi","codice":"010029","codiceCatastale":"E519","regione":"liguria","provincia":"genova","cap":"16040","coordinate":{"lat":"9.319011111","lng":"44.345708333"}},{"nome":"Lerici","codice":"011016","codiceCatastale":"E542","regione":"liguria","provincia":"la spezia","cap":"19032","coordinate":{"lat":"9.9111","lng":"44.076261111"}},{"nome":"Levanto","codice":"011017","codiceCatastale":"E560","regione":"liguria","provincia":"la spezia","cap":"19015","coordinate":{"lat":"9.612233333","lng":"44.169683333"}},{"nome":"Loano","codice":"009034","codiceCatastale":"E632","regione":"liguria","provincia":"savona","cap":"17025","coordinate":{"lat":"8.259822222","lng":"44.129002777"}},{"nome":"Lorsica","codice":"010030","codiceCatastale":"E695","regione":"liguria","provincia":"genova","cap":"16045","coordinate":{"lat":"9.267861111","lng":"44.429513888"}},{"nome":"Lucinasco","codice":"008033","codiceCatastale":"E719","regione":"liguria","provincia":"imperia","cap":"18020","coordinate":{"lat":"7.962811111","lng":"43.967708333"}},{"nome":"Lumarzo","codice":"010031","codiceCatastale":"E737","regione":"liguria","provincia":"genova","cap":"16024","coordinate":{"lat":"9.137238888","lng":"44.443527777"}},{"nome":"Luni","codice":"011020","codiceCatastale":"G143","regione":"liguria","provincia":"la spezia","cap":"19034","coordinate":{"lat":"10.042027777","lng":"44.084841666"}},{"nome":"Magliolo","codice":"009035","codiceCatastale":"E816","regione":"liguria","provincia":"savona","cap":"17020","coordinate":{"lat":"8.250238888","lng":"44.191561111"}},{"nome":"Maissana","codice":"011018","codiceCatastale":"E842","regione":"liguria","provincia":"la spezia","cap":"19010","coordinate":{"lat":"9.534386111","lng":"44.336283333"}},{"nome":"Mallare","codice":"009036","codiceCatastale":"E860","regione":"liguria","provincia":"savona","cap":"17045","coordinate":{"lat":"8.297613888","lng":"44.291613888"}},{"nome":"Masone","codice":"010032","codiceCatastale":"F020","regione":"liguria","provincia":"genova","cap":"16010","coordinate":{"lat":"8.711952777","lng":"44.503563888"}},{"nome":"Massimino","codice":"009037","codiceCatastale":"F046","regione":"liguria","provincia":"savona","cap":"12071","coordinate":{"lat":"8.066666666","lng":"44.3"}},{"nome":"Mele","codice":"010033","codiceCatastale":"F098","regione":"liguria","provincia":"genova","cap":"16010","coordinate":{"lat":"8.747941666","lng":"44.445497222"}},{"nome":"Mendatica","codice":"008034","codiceCatastale":"F123","regione":"liguria","provincia":"imperia","cap":"18025","coordinate":{"lat":"7.805691666","lng":"44.07635"}},{"nome":"Mezzanego","codice":"010034","codiceCatastale":"F173","regione":"liguria","provincia":"genova","cap":"16046","coordinate":{"lat":"9.377288888","lng":"44.383691666"}},{"nome":"Mignanego","codice":"010035","codiceCatastale":"F202","regione":"liguria","provincia":"genova","cap":"16018","coordinate":{"lat":"8.915186111","lng":"44.527825"}},{"nome":"Millesimo","codice":"009038","codiceCatastale":"F213","regione":"liguria","provincia":"savona","cap":"17017","coordinate":{"lat":"8.205936111","lng":"44.3644"}},{"nome":"Mioglia","codice":"009039","codiceCatastale":"F226","regione":"liguria","provincia":"savona","cap":"17040","coordinate":{"lat":"8.411202777","lng":"44.489802777"}},{"nome":"Moconesi","codice":"010036","codiceCatastale":"F256","regione":"liguria","provincia":"genova","cap":"16047","coordinate":{"lat":"9.212358333","lng":"44.419836111"}},{"nome":"Molini di Triora","codice":"008035","codiceCatastale":"F290","regione":"liguria","provincia":"imperia","cap":"18010","coordinate":{"lat":"7.774641666","lng":"43.990313888"}},{"nome":"Moneglia","codice":"010037","codiceCatastale":"F354","regione":"liguria","provincia":"genova","cap":"16030","coordinate":{"lat":"9.490275","lng":"44.238619444"}},{"nome":"Montalto Carpasio","codice":"008068","codiceCatastale":"M387","regione":"liguria","provincia":"imperia","cap":"18010","coordinate":{"lat":"7.84444444","lng":"43.92777778"}},{"nome":"Montebruno","codice":"010038","codiceCatastale":"F445","regione":"liguria","provincia":"genova","cap":"16025","coordinate":{"lat":"9.249013888","lng":"44.525975"}},{"nome":"Montegrosso Pian Latte","codice":"008037","codiceCatastale":"F528","regione":"liguria","provincia":"imperia","cap":"18025","coordinate":{"lat":"7.817783333","lng":"44.066647222"}},{"nome":"Monterosso al Mare","codice":"011019","codiceCatastale":"F609","regione":"liguria","provincia":"la spezia","cap":"19016","coordinate":{"lat":"9.65555","lng":"44.146286111"}},{"nome":"Montoggio","codice":"010039","codiceCatastale":"F682","regione":"liguria","provincia":"genova","cap":"16026","coordinate":{"lat":"9.043608333","lng":"44.515138888"}},{"nome":"Murialdo","codice":"009040","codiceCatastale":"F813","regione":"liguria","provincia":"savona","cap":"17013","coordinate":{"lat":"8.161308333","lng":"44.316172222"}},{"nome":"Nasino","codice":"009041","codiceCatastale":"F847","regione":"liguria","provincia":"savona","cap":"17030","coordinate":{"lat":"8.029713888","lng":"44.114405555"}},{"nome":"Ne","codice":"010040","codiceCatastale":"F858","regione":"liguria","provincia":"genova","cap":"16040","coordinate":{"lat":"9.398547222","lng":"44.344519444"}},{"nome":"Neirone","codice":"010041","codiceCatastale":"F862","regione":"liguria","provincia":"genova","cap":"16040","coordinate":{"lat":"9.190855555","lng":"44.454294444"}},{"nome":"Noli","codice":"009042","codiceCatastale":"F926","regione":"liguria","provincia":"savona","cap":"17026","coordinate":{"lat":"8.41615","lng":"44.205691666"}},{"nome":"Olivetta San Michele","codice":"008038","codiceCatastale":"G041","regione":"liguria","provincia":"imperia","cap":"18030","coordinate":{"lat":"7.515558333","lng":"43.879727777"}},{"nome":"Onzo","codice":"009043","codiceCatastale":"G076","regione":"liguria","provincia":"savona","cap":"17030","coordinate":{"lat":"8.054947222","lng":"44.070102777"}},{"nome":"Orco Feglino","codice":"009044","codiceCatastale":"D522","regione":"liguria","provincia":"savona","cap":"17024","coordinate":{"lat":"8.324994444","lng":"44.219525"}},{"nome":"Orero","codice":"010042","codiceCatastale":"G093","regione":"liguria","provincia":"genova","cap":"16040","coordinate":{"lat":"9.27415","lng":"44.406841666"}},{"nome":"Ortovero","codice":"009045","codiceCatastale":"G144","regione":"liguria","provincia":"savona","cap":"17037","coordinate":{"lat":"8.087527777","lng":"44.053316666"}},{"nome":"Osiglia","codice":"009046","codiceCatastale":"G155","regione":"liguria","provincia":"savona","cap":"17010","coordinate":{"lat":"8.201113888","lng":"44.281175"}},{"nome":"Ospedaletti","codice":"008039","codiceCatastale":"G164","regione":"liguria","provincia":"imperia","cap":"18014","coordinate":{"lat":"7.717694444","lng":"43.800588888"}},{"nome":"Pallare","codice":"009047","codiceCatastale":"G281","regione":"liguria","provincia":"savona","cap":"17043","coordinate":{"lat":"8.2754","lng":"44.327336111"}},{"nome":"Perinaldo","codice":"008040","codiceCatastale":"G454","regione":"liguria","provincia":"imperia","cap":"18032","coordinate":{"lat":"7.67435","lng":"43.866930555"}},{"nome":"Piana Crixia","codice":"009048","codiceCatastale":"G542","regione":"liguria","provincia":"savona","cap":"17058","coordinate":{"lat":"8.307530555","lng":"44.485372222"}},{"nome":"Pietra Ligure","codice":"009049","codiceCatastale":"G605","regione":"liguria","provincia":"savona","cap":"17027","coordinate":{"lat":"8.282816666","lng":"44.148747222"}},{"nome":"Pietrabruna","codice":"008041","codiceCatastale":"G607","regione":"liguria","provincia":"imperia","cap":"18010","coordinate":{"lat":"7.903283333","lng":"43.889813888"}},{"nome":"Pieve di Teco","codice":"008042","codiceCatastale":"G632","regione":"liguria","provincia":"imperia","cap":"18026","coordinate":{"lat":"7.916","lng":"44.048"}},{"nome":"Pieve Ligure","codice":"010043","codiceCatastale":"G646","regione":"liguria","provincia":"genova","cap":"16031","coordinate":{"lat":"9.086597222","lng":"44.374808333"}},{"nome":"Pigna","codice":"008043","codiceCatastale":"G660","regione":"liguria","provincia":"imperia","cap":"18037","coordinate":{"lat":"7.66375","lng":"43.932538888"}},{"nome":"Pignone","codice":"011021","codiceCatastale":"G664","regione":"liguria","provincia":"la spezia","cap":"19020","coordinate":{"lat":"9.724113888","lng":"44.179013888"}},{"nome":"Plodio","codice":"009050","codiceCatastale":"G741","regione":"liguria","provincia":"savona","cap":"17043","coordinate":{"lat":"8.243091666","lng":"44.356627777"}},{"nome":"Pompeiana","codice":"008044","codiceCatastale":"G814","regione":"liguria","provincia":"imperia","cap":"18015","coordinate":{"lat":"7.888636111","lng":"43.853325"}},{"nome":"Pontedassio","codice":"008045","codiceCatastale":"G840","regione":"liguria","provincia":"imperia","cap":"18027","coordinate":{"lat":"8.0123","lng":"43.940280555"}},{"nome":"Pontinvrea","codice":"009051","codiceCatastale":"G866","regione":"liguria","provincia":"savona","cap":"17042","coordinate":{"lat":"8.434636111","lng":"44.444763888"}},{"nome":"Pornassio","codice":"008046","codiceCatastale":"G890","regione":"liguria","provincia":"imperia","cap":"18024","coordinate":{"lat":"7.869408333","lng":"44.069894444"}},{"nome":"Portofino","codice":"010044","codiceCatastale":"G913","regione":"liguria","provincia":"genova","cap":"16034","coordinate":{"lat":"9.207161111","lng":"44.304241666"}},{"nome":"Portovenere","codice":"011022","codiceCatastale":"G925","regione":"liguria","provincia":"la spezia","cap":"19025","coordinate":{"lat":"9.833333","lng":"44.05"}},{"nome":"Prelà","codice":"008047","codiceCatastale":"H027","regione":"liguria","provincia":"imperia","cap":"18020","coordinate":{"lat":"7.909297222","lng":"43.923816666"}},{"nome":"Propata","codice":"010045","codiceCatastale":"H073","regione":"liguria","provincia":"genova","cap":"16027","coordinate":{"lat":"9.184880555","lng":"44.564702777"}},{"nome":"Quiliano","codice":"009052","codiceCatastale":"H126","regione":"liguria","provincia":"savona","cap":"17047","coordinate":{"lat":"8.410308333","lng":"44.293113888"}},{"nome":"Ranzo","codice":"008048","codiceCatastale":"H180","regione":"liguria","provincia":"imperia","cap":"18020","coordinate":{"lat":"8.014611111","lng":"44.059419444"}},{"nome":"Rapallo","codice":"010046","codiceCatastale":"H183","regione":"liguria","provincia":"genova","cap":"16035","coordinate":{"lat":"9.233333333","lng":"44.35"}},{"nome":"Recco","codice":"010047","codiceCatastale":"H212","regione":"liguria","provincia":"genova","cap":"16036","coordinate":{"lat":"9.143475","lng":"44.362088888"}},{"nome":"Rezzo","codice":"008049","codiceCatastale":"H257","regione":"liguria","provincia":"imperia","cap":"18026","coordinate":{"lat":"7.871445","lng":"44.021425"}},{"nome":"Rezzoaglio","codice":"010048","codiceCatastale":"H258","regione":"liguria","provincia":"genova","cap":"16048","coordinate":{"lat":"9.386652777","lng":"44.526261111"}},{"nome":"Rialto","codice":"009053","codiceCatastale":"H266","regione":"liguria","provincia":"savona","cap":"17020","coordinate":{"lat":"8.25","lng":"44.233333"}},{"nome":"Riccò del Golfo di Spezia","codice":"011023","codiceCatastale":"H275","regione":"liguria","provincia":"la spezia","cap":"19020","coordinate":{"lat":"9.763888888","lng":"44.153055555"}},{"nome":"Riomaggiore","codice":"011024","codiceCatastale":"H304","regione":"liguria","provincia":"la spezia","cap":"19017","coordinate":{"lat":"9.73745","lng":"44.099286111"}},{"nome":"Riva Ligure","codice":"008050","codiceCatastale":"H328","regione":"liguria","provincia":"imperia","cap":"18015","coordinate":{"lat":"7.881880555","lng":"43.837477777"}},{"nome":"Roccavignale","codice":"009054","codiceCatastale":"H452","regione":"liguria","provincia":"savona","cap":"17017","coordinate":{"lat":"8.192825","lng":"44.361638888"}},{"nome":"Rocchetta di Vara","codice":"011025","codiceCatastale":"H461","regione":"liguria","provincia":"la spezia","cap":"19020","coordinate":{"lat":"9.7572","lng":"44.251025"}},{"nome":"Rocchetta Nervina","codice":"008051","codiceCatastale":"H460","regione":"liguria","provincia":"imperia","cap":"18030","coordinate":{"lat":"7.600202777","lng":"43.889997222"}},{"nome":"Ronco Scrivia","codice":"010049","codiceCatastale":"H536","regione":"liguria","provincia":"genova","cap":"16019","coordinate":{"lat":"8.955166666","lng":"44.608205555"}},{"nome":"Rondanina","codice":"010050","codiceCatastale":"H546","regione":"liguria","provincia":"genova","cap":"16025","coordinate":{"lat":"9.217738888","lng":"44.562397222"}},{"nome":"Rossiglione","codice":"010051","codiceCatastale":"H581","regione":"liguria","provincia":"genova","cap":"16010","coordinate":{"lat":"8.666667","lng":"44.566667"}},{"nome":"Rovegno","codice":"010052","codiceCatastale":"H599","regione":"liguria","provincia":"genova","cap":"16028","coordinate":{"lat":"9.278838888","lng":"44.575872222"}},{"nome":"San Bartolomeo al Mare","codice":"008052","codiceCatastale":"H763","regione":"liguria","provincia":"imperia","cap":"18016","coordinate":{"lat":"8.102238888","lng":"43.927822222"}},{"nome":"San Biagio della Cima","codice":"008053","codiceCatastale":"H780","regione":"liguria","provincia":"imperia","cap":"18036","coordinate":{"lat":"7.649652777","lng":"43.818594444"}},{"nome":"San Colombano Certenoli","codice":"010053","codiceCatastale":"H802","regione":"liguria","provincia":"genova","cap":"16040","coordinate":{"lat":"9.311625","lng":"44.371758333"}},{"nome":"San Lorenzo al Mare","codice":"008054","codiceCatastale":"H957","regione":"liguria","provincia":"imperia","cap":"18017","coordinate":{"lat":"7.963805555","lng":"43.853375"}},{"nome":"Sanremo","codice":"008055","codiceCatastale":"I138","regione":"liguria","provincia":"imperia","cap":"18038","coordinate":{"lat":"7.775","lng":"43.8175"}},{"nome":"Sant'Olcese","codice":"010055","codiceCatastale":"I346","regione":"liguria","provincia":"genova","cap":"16010","coordinate":{"lat":"8.935230555","lng":"44.483386111"}},{"nome":"Santa Margherita Ligure","codice":"010054","codiceCatastale":"I225","regione":"liguria","provincia":"genova","cap":"16038","coordinate":{"lat":"9.210122222","lng":"44.334933333"}},{"nome":"Santo Stefano al Mare","codice":"008056","codiceCatastale":"I365","regione":"liguria","provincia":"imperia","cap":"18010","coordinate":{"lat":"7.899311111","lng":"43.837233333"}},{"nome":"Santo Stefano d'Aveto","codice":"010056","codiceCatastale":"I368","regione":"liguria","provincia":"genova","cap":"16049","coordinate":{"lat":"9.450733333","lng":"44.547716666"}},{"nome":"Santo Stefano di Magra","codice":"011026","codiceCatastale":"I363","regione":"liguria","provincia":"la spezia","cap":"19037","coordinate":{"lat":"9.915133333","lng":"44.162480555"}},{"nome":"Sarzana","codice":"011027","codiceCatastale":"I449","regione":"liguria","provincia":"la spezia","cap":"19038","coordinate":{"lat":"9.959958333","lng":"44.113608333"}},{"nome":"Sassello","codice":"009055","codiceCatastale":"I453","regione":"liguria","provincia":"savona","cap":"17046","coordinate":{"lat":"8.490097222","lng":"44.479002777"}},{"nome":"Savignone","codice":"010057","codiceCatastale":"I475","regione":"liguria","provincia":"genova","cap":"16010","coordinate":{"lat":"8.988647222","lng":"44.563927777"}},{"nome":"Savona","codice":"009056","codiceCatastale":"I480","regione":"liguria","provincia":"savona","cap":"17100","coordinate":{"lat":"8.481016666","lng":"44.307975"}},{"nome":"Seborga","codice":"008057","codiceCatastale":"I556","regione":"liguria","provincia":"imperia","cap":"18012","coordinate":{"lat":"7.693838888","lng":"43.826044444"}},{"nome":"Serra Riccò","codice":"010058","codiceCatastale":"I640","regione":"liguria","provincia":"genova","cap":"16010","coordinate":{"lat":"8.93595","lng":"44.507758333"}},{"nome":"Sesta Godano","codice":"011028","codiceCatastale":"E070","regione":"liguria","provincia":"la spezia","cap":"19020","coordinate":{"lat":"9.675427777","lng":"44.293733333"}},{"nome":"Sestri Levante","codice":"010059","codiceCatastale":"I693","regione":"liguria","provincia":"genova","cap":"16039","coordinate":{"lat":"9.393238888","lng":"44.273333333"}},{"nome":"Soldano","codice":"008058","codiceCatastale":"I796","regione":"liguria","provincia":"imperia","cap":"18036","coordinate":{"lat":"7.655425","lng":"43.828394444"}},{"nome":"Sori","codice":"010060","codiceCatastale":"I852","regione":"liguria","provincia":"genova","cap":"16031","coordinate":{"lat":"9.104233333","lng":"44.372686111"}},{"nome":"Spotorno","codice":"009057","codiceCatastale":"I926","regione":"liguria","provincia":"savona","cap":"17028","coordinate":{"lat":"8.419202777","lng":"44.227108333"}},{"nome":"Stella","codice":"009058","codiceCatastale":"I946","regione":"liguria","provincia":"savona","cap":"17044","coordinate":{"lat":"8.493313888","lng":"44.396897222"}},{"nome":"Stellanello","codice":"009059","codiceCatastale":"I947","regione":"liguria","provincia":"savona","cap":"17020","coordinate":{"lat":"8.055052777","lng":"44.001183333"}},{"nome":"Taggia","codice":"008059","codiceCatastale":"L024","regione":"liguria","provincia":"imperia","cap":"18018","coordinate":{"lat":"7.850927777","lng":"43.843858333"}},{"nome":"Terzorio","codice":"008060","codiceCatastale":"L146","regione":"liguria","provincia":"imperia","cap":"18010","coordinate":{"lat":"7.898102777","lng":"43.852902777"}},{"nome":"Testico","codice":"009060","codiceCatastale":"L152","regione":"liguria","provincia":"savona","cap":"17020","coordinate":{"lat":"8.030316666","lng":"44.005233333"}},{"nome":"Tiglieto","codice":"010061","codiceCatastale":"L167","regione":"liguria","provincia":"genova","cap":"16010","coordinate":{"lat":"8.619811111","lng":"44.524963888"}},{"nome":"Toirano","codice":"009061","codiceCatastale":"L190","regione":"liguria","provincia":"savona","cap":"17055","coordinate":{"lat":"8.207108333","lng":"44.127041666"}},{"nome":"Torriglia","codice":"010062","codiceCatastale":"L298","regione":"liguria","provincia":"genova","cap":"16029","coordinate":{"lat":"9.157977777","lng":"44.518733333"}},{"nome":"Tovo San Giacomo","codice":"009062","codiceCatastale":"L315","regione":"liguria","provincia":"savona","cap":"17020","coordinate":{"lat":"8.26845","lng":"44.176561111"}},{"nome":"Tribogna","codice":"010063","codiceCatastale":"L416","regione":"liguria","provincia":"genova","cap":"16030","coordinate":{"lat":"9.195905555","lng":"44.416363888"}},{"nome":"Triora","codice":"008061","codiceCatastale":"L430","regione":"liguria","provincia":"imperia","cap":"18010","coordinate":{"lat":"7.766666666","lng":"44.0"}},{"nome":"Urbe","codice":"009063","codiceCatastale":"L499","regione":"liguria","provincia":"savona","cap":"17048","coordinate":{"lat":"8.591952777","lng":"44.487577777"}},{"nome":"Uscio","codice":"010064","codiceCatastale":"L507","regione":"liguria","provincia":"genova","cap":"16036","coordinate":{"lat":"9.162958333","lng":"44.413202777"}},{"nome":"Vado Ligure","codice":"009064","codiceCatastale":"L528","regione":"liguria","provincia":"savona","cap":"17047","coordinate":{"lat":"8.436069444","lng":"44.269175"}},{"nome":"Valbrevenna","codice":"010065","codiceCatastale":"L546","regione":"liguria","provincia":"genova","cap":"16010","coordinate":{"lat":"9.0916029","lng":"44.5605766"}},{"nome":"Vallebona","codice":"008062","codiceCatastale":"L596","regione":"liguria","provincia":"imperia","cap":"18012","coordinate":{"lat":"7.666594444","lng":"43.814011111"}},{"nome":"Vallecrosia","codice":"008063","codiceCatastale":"L599","regione":"liguria","provincia":"imperia","cap":"18019","coordinate":{"lat":"7.643872222","lng":"43.793091666"}},{"nome":"Varazze","codice":"009065","codiceCatastale":"L675","regione":"liguria","provincia":"savona","cap":"17019","coordinate":{"lat":"8.576636111","lng":"44.360005555"}},{"nome":"Varese Ligure","codice":"011029","codiceCatastale":"L681","regione":"liguria","provincia":"la spezia","cap":"19028","coordinate":{"lat":"9.595825","lng":"44.378127777"}},{"nome":"Vasia","codice":"008064","codiceCatastale":"L693","regione":"liguria","provincia":"imperia","cap":"18020","coordinate":{"lat":"7.954341666","lng":"43.933230555"}},{"nome":"Vendone","codice":"009066","codiceCatastale":"L730","regione":"liguria","provincia":"savona","cap":"17032","coordinate":{"lat":"8.074125","lng":"44.074277777"}},{"nome":"Ventimiglia","codice":"008065","codiceCatastale":"L741","regione":"liguria","provincia":"imperia","cap":"18039","coordinate":{"lat":"7.608333333","lng":"43.790277777"}},{"nome":"Vernazza","codice":"011030","codiceCatastale":"L774","regione":"liguria","provincia":"la spezia","cap":"19018","coordinate":{"lat":"9.683852777","lng":"44.135161111"}},{"nome":"Vessalico","codice":"008066","codiceCatastale":"L809","regione":"liguria","provincia":"imperia","cap":"18026","coordinate":{"lat":"7.962063888","lng":"44.046316666"}},{"nome":"Vezzano Ligure","codice":"011031","codiceCatastale":"L819","regione":"liguria","provincia":"la spezia","cap":"19020","coordinate":{"lat":"9.884922222","lng":"44.141186111"}},{"nome":"Vezzi Portio","codice":"009067","codiceCatastale":"L823","regione":"liguria","provincia":"savona","cap":"17028","coordinate":{"lat":"8.362213888","lng":"44.229022222"}},{"nome":"Villa Faraldi","codice":"008067","codiceCatastale":"L943","regione":"liguria","provincia":"imperia","cap":"18010","coordinate":{"lat":"8.091508333","lng":"43.967108333"}},{"nome":"Villanova d'Albenga","codice":"009068","codiceCatastale":"L975","regione":"liguria","provincia":"savona","cap":"17038","coordinate":{"lat":"8.143133333","lng":"44.046008333"}},{"nome":"Vobbia","codice":"010066","codiceCatastale":"M105","regione":"liguria","provincia":"genova","cap":"16010","coordinate":{"lat":"9.040027777","lng":"44.599377777"}},{"nome":"Zignago","codice":"011032","codiceCatastale":"M177","regione":"liguria","provincia":"la spezia","cap":"19020","coordinate":{"lat":"9.744633333","lng":"44.277611111"}},{"nome":"Zoagli","codice":"010067","codiceCatastale":"M182","regione":"liguria","provincia":"genova","cap":"16035","coordinate":{"lat":"9.267091666","lng":"44.336969444"}},{"nome":"Zuccarello","codice":"009069","codiceCatastale":"M197","regione":"liguria","provincia":"savona","cap":"17039","coordinate":{"lat":"8.115849","lng":"44.111029"}}]