[{"nome":"Ala","codice":"022001","codiceCatastale":"A116","regione":"trentino alto adige","provincia":"trento","cap":"38061","coordinate":{"lat":"11.0","lng":"45.75"}},{"nome":"Albiano","codice":"022002","codiceCatastale":"A158","regione":"trentino alto adige","provincia":"trento","cap":"38041","coordinate":{"lat":"11.2","lng":"46.15"}},{"nome":"Aldeno","codice":"022003","codiceCatastale":"A178","regione":"trentino alto adige","provincia":"trento","cap":"38060","coordinate":{"lat":"11.083333333","lng":"45.983333333"}},{"nome":"Aldino/Aldein","codice":"021001","codiceCatastale":"A179","regione":"trentino alto adige","provincia":"bolzano","cap":"39040","coordinate":{"lat":"11.35","lng":"46.366666666"}},{"nome":"Altavalle","codice":"022235","codiceCatastale":"M349","regione":"trentino alto adige","provincia":"trento","cap":"38092","coordinate":{"lat":"11.233333333","lng":"46.183333333"}},{"nome":"Altopiano della Vigolana","codice":"022236","codiceCatastale":"M350","regione":"trentino alto adige","provincia":"trento","cap":"38049","coordinate":{"lat":"11.2","lng":"46.0"}},{"nome":"Amblar-Don","codice":"022237","codiceCatastale":"M351","regione":"trentino alto adige","provincia":"trento","cap":"38011","coordinate":{"lat":"11.15","lng":"46.4"}},{"nome":"Andalo","codice":"022005","codiceCatastale":"A274","regione":"trentino alto adige","provincia":"trento","cap":"38010","coordinate":{"lat":"11.004444444","lng":"46.166666666"}},{"nome":"Andriano/Andrian","codice":"021002","codiceCatastale":"A286","regione":"trentino alto adige","provincia":"bolzano","cap":"39010","coordinate":{"lat":"11.23137","lng":"46.51762"}},{"nome":"Anterivo/Altrei","codice":"021003","codiceCatastale":"A306","regione":"trentino alto adige","provincia":"bolzano","cap":"39040","coordinate":{"lat":"11.36665","lng":"46.2781"}},{"nome":"Appiano sulla strada del vino/Eppan an der Weinstraße","codice":"021004","codiceCatastale":"A332","regione":"trentino alto adige","provincia":"bolzano","cap":"39050","coordinate":{"lat":"11.266666666","lng":"46.45"}},{"nome":"Arco","codice":"022006","codiceCatastale":"A372","regione":"trentino alto adige","provincia":"trento","cap":"38062","coordinate":{"lat":"10.883333333","lng":"45.916666666"}},{"nome":"Avelengo/Hafling","codice":"021005","codiceCatastale":"A507","regione":"trentino alto adige","provincia":"bolzano","cap":"39010","coordinate":{"lat":"11.22419","lng":"46.64557"}},{"nome":"Avio","codice":"022007","codiceCatastale":"A520","regione":"trentino alto adige","provincia":"trento","cap":"38063","coordinate":{"lat":"10.95","lng":"45.733333333"}},{"nome":"Badia/Abtei","codice":"021006","codiceCatastale":"A537","regione":"trentino alto adige","provincia":"bolzano","cap":"39036","coordinate":{"lat":"11.894444444","lng":"46.611111111"}},{"nome":"Barbiano/Barbian","codice":"021007","codiceCatastale":"A635","regione":"trentino alto adige","provincia":"bolzano","cap":"39040","coordinate":{"lat":"11.52138","lng":"46.60332"}},{"nome":"Baselga di Pinè","codice":"022009","codiceCatastale":"A694","regione":"trentino alto adige","provincia":"trento","cap":"38042","coordinate":{"lat":"11.244633333","lng":"46.129763888"}},{"nome":"Bedollo","codice":"022011","codiceCatastale":"A730","regione":"trentino alto adige","provincia":"trento","cap":"38043","coordinate":{"lat":"11.3","lng":"46.166666666"}},{"nome":"Besenello","codice":"022013","codiceCatastale":"A821","regione":"trentino alto adige","provincia":"trento","cap":"38060","coordinate":{"lat":"11.108611111","lng":"45.941944444"}},{"nome":"Bieno","codice":"022015","codiceCatastale":"A863","regione":"trentino alto adige","provincia":"trento","cap":"38050","coordinate":{"lat":"11.55396","lng":"46.08041"}},{"nome":"Bleggio Superiore","codice":"022017","codiceCatastale":"A902","regione":"trentino alto adige","provincia":"trento","cap":"38071","coordinate":{"lat":"10.82368","lng":"46.02257"}},{"nome":"Bocenago","codice":"022018","codiceCatastale":"A916","regione":"trentino alto adige","provincia":"trento","cap":"38080","coordinate":{"lat":"10.75","lng":"46.116666666"}},{"nome":"Bolzano/Bozen","codice":"021008","codiceCatastale":"A952","regione":"trentino alto adige","provincia":"bolzano","cap":"39100","coordinate":{"lat":"11.35","lng":"46.5"}},{"nome":"Bondone","codice":"022021","codiceCatastale":"A968","regione":"trentino alto adige","provincia":"trento","cap":"38080","coordinate":{"lat":"10.55027","lng":"45.80649"}},{"nome":"Borgo Chiese","codice":"022238","codiceCatastale":"M352","regione":"trentino alto adige","provincia":"trento","cap":"38083","coordinate":{"lat":"10.6013","lng":"45.8906"}},{"nome":"Borgo d'Anaunia","codice":"022252","codiceCatastale":"M429","regione":"trentino alto adige","provincia":"trento","cap":"38013","coordinate":{"lat":"11.136016","lng":"46.439726"}},{"nome":"Borgo Lares","codice":"022239","codiceCatastale":"M353","regione":"trentino alto adige","provincia":"trento","cap":"38079","coordinate":{"lat":"10.752222222","lng":"46.035277777"}},{"nome":"Borgo Valsugana","codice":"022022","codiceCatastale":"B006","regione":"trentino alto adige","provincia":"trento","cap":"38051","coordinate":{"lat":"11.45","lng":"46.05"}},{"nome":"Braies/Prags","codice":"021009","codiceCatastale":"B116","regione":"trentino alto adige","provincia":"bolzano","cap":"39030","coordinate":{"lat":"12.133333333","lng":"46.716666666"}},{"nome":"Brennero/Brenner","codice":"021010","codiceCatastale":"B145","regione":"trentino alto adige","provincia":"bolzano","cap":"39041","coordinate":{"lat":"11.5028","lng":"47.0009"}},{"nome":"Brentonico","codice":"022025","codiceCatastale":"B153","regione":"trentino alto adige","provincia":"trento","cap":"38060","coordinate":{"lat":"10.95","lng":"45.816666666"}},{"nome":"Bresimo","codice":"022026","codiceCatastale":"B158","regione":"trentino alto adige","provincia":"trento","cap":"38020","coordinate":{"lat":"10.969792357","lng":"46.411554291"}},{"nome":"Bressanone/Brixen","codice":"021011","codiceCatastale":"B160","regione":"trentino alto adige","provincia":"bolzano","cap":"39042","coordinate":{"lat":"11.65","lng":"46.716666666"}},{"nome":"Bronzolo/Branzoll","codice":"021012","codiceCatastale":"B203","regione":"trentino alto adige","provincia":"bolzano","cap":"39051","coordinate":{"lat":"11.31951","lng":"46.40446"}},{"nome":"Brunico/Bruneck","codice":"021013","codiceCatastale":"B220","regione":"trentino alto adige","provincia":"bolzano","cap":"39031","coordinate":{"lat":"11.93429","lng":"46.79942"}},{"nome":"Caderzone Terme","codice":"022029","codiceCatastale":"B335","regione":"trentino alto adige","provincia":"trento","cap":"38080","coordinate":{"lat":"10.75","lng":"46.133333333"}},{"nome":"Caines/Kuens","codice":"021014","codiceCatastale":"B364","regione":"trentino alto adige","provincia":"bolzano","cap":"39010","coordinate":{"lat":"11.16987","lng":"46.70002"}},{"nome":"Calceranica al Lago","codice":"022032","codiceCatastale":"B389","regione":"trentino alto adige","provincia":"trento","cap":"38050","coordinate":{"lat":"11.2425","lng":"46.003611111"}},{"nome":"Caldaro sulla strada del vino/Kaltern an der Weinstraße","codice":"021015","codiceCatastale":"B397","regione":"trentino alto adige","provincia":"bolzano","cap":"39052","coordinate":{"lat":"11.24616","lng":"46.41326"}},{"nome":"Caldes","codice":"022033","codiceCatastale":"B400","regione":"trentino alto adige","provincia":"trento","cap":"38022","coordinate":{"lat":"10.95","lng":"46.366666666"}},{"nome":"Caldonazzo","codice":"022034","codiceCatastale":"B404","regione":"trentino alto adige","provincia":"trento","cap":"38052","coordinate":{"lat":"11.266666666","lng":"46.0"}},{"nome":"Calliano","codice":"022035","codiceCatastale":"B419","regione":"trentino alto adige","provincia":"trento","cap":"38060","coordinate":{"lat":"11.083333333","lng":"45.933333333"}},{"nome":"Campitello di Fassa","codice":"022036","codiceCatastale":"B514","regione":"trentino alto adige","provincia":"trento","cap":"38031","coordinate":{"lat":"11.74107","lng":"46.47665"}},{"nome":"Campo di Trens/Freienfeld","codice":"021016","codiceCatastale":"B529","regione":"trentino alto adige","provincia":"bolzano","cap":"39040","coordinate":{"lat":"11.48605","lng":"46.87412"}},{"nome":"Campo Tures/Sand in Taufers","codice":"021017","codiceCatastale":"B570","regione":"trentino alto adige","provincia":"bolzano","cap":"39032","coordinate":{"lat":"11.9551824","lng":"46.9192363"}},{"nome":"Campodenno","codice":"022037","codiceCatastale":"B525","regione":"trentino alto adige","provincia":"trento","cap":"38010","coordinate":{"lat":"11.033333333","lng":"46.25"}},{"nome":"Canal San Bovo","codice":"022038","codiceCatastale":"B577","regione":"trentino alto adige","provincia":"trento","cap":"38050","coordinate":{"lat":"11.733611111","lng":"46.156388888"}},{"nome":"Canazei","codice":"022039","codiceCatastale":"B579","regione":"trentino alto adige","provincia":"trento","cap":"38032","coordinate":{"lat":"11.77104","lng":"46.47696"}},{"nome":"Capriana","codice":"022040","codiceCatastale":"B697","regione":"trentino alto adige","provincia":"trento","cap":"38030","coordinate":{"lat":"11.333333333","lng":"46.266666666"}},{"nome":"Carisolo","codice":"022042","codiceCatastale":"B783","regione":"trentino alto adige","provincia":"trento","cap":"38080","coordinate":{"lat":"10.763769444","lng":"46.1691"}},{"nome":"Carzano","codice":"022043","codiceCatastale":"B856","regione":"trentino alto adige","provincia":"trento","cap":"38050","coordinate":{"lat":"11.49379","lng":"46.07091"}},{"nome":"Castel Condino","codice":"022045","codiceCatastale":"C183","regione":"trentino alto adige","provincia":"trento","cap":"38082","coordinate":{"lat":"10.6","lng":"45.916666666"}},{"nome":"Castel Ivano","codice":"022240","codiceCatastale":"M354","regione":"trentino alto adige","provincia":"trento","cap":"38059","coordinate":{"lat":"11.52357","lng":"46.06636"}},{"nome":"Castelbello-Ciardes/Kastelbell-Tschars","codice":"021018","codiceCatastale":"C062","regione":"trentino alto adige","provincia":"bolzano","cap":"39020","coordinate":{"lat":"10.90666","lng":"46.62832"}},{"nome":"Castello Tesino","codice":"022048","codiceCatastale":"C194","regione":"trentino alto adige","provincia":"trento","cap":"38053","coordinate":{"lat":"11.63331","lng":"46.06343"}},{"nome":"Castello-Molina di Fiemme","codice":"022047","codiceCatastale":"C189","regione":"trentino alto adige","provincia":"trento","cap":"38030","coordinate":{"lat":"11.4172","lng":"46.27208"}},{"nome":"Castelnuovo","codice":"022049","codiceCatastale":"C216","regione":"trentino alto adige","provincia":"trento","cap":"38050","coordinate":{"lat":"11.49421","lng":"46.05192"}},{"nome":"Castelrotto/Kastelruth","codice":"021019","codiceCatastale":"C254","regione":"trentino alto adige","provincia":"bolzano","cap":"39040","coordinate":{"lat":"11.83869","lng":"46.80813"}},{"nome":"Cavalese","codice":"022050","codiceCatastale":"C372","regione":"trentino alto adige","provincia":"trento","cap":"38033","coordinate":{"lat":"11.459338888","lng":"46.290630555"}},{"nome":"Cavareno","codice":"022051","codiceCatastale":"C380","regione":"trentino alto adige","provincia":"trento","cap":"38011","coordinate":{"lat":"11.133333333","lng":"46.416666666"}},{"nome":"Cavedago","codice":"022052","codiceCatastale":"C392","regione":"trentino alto adige","provincia":"trento","cap":"38010","coordinate":{"lat":"11.033333333","lng":"46.183333333"}},{"nome":"Cavedine","codice":"022053","codiceCatastale":"C393","regione":"trentino alto adige","provincia":"trento","cap":"38073","coordinate":{"lat":"10.966666666","lng":"46.0"}},{"nome":"Cavizzana","codice":"022054","codiceCatastale":"C400","regione":"trentino alto adige","provincia":"trento","cap":"38022","coordinate":{"lat":"10.957923","lng":"46.3675013"}},{"nome":"Cembra Lisignago","codice":"022241","codiceCatastale":"M355","regione":"trentino alto adige","provincia":"trento","cap":"38034","coordinate":{"lat":"11.216666666","lng":"46.183333333"}},{"nome":"Cermes/Tscherms","codice":"021020","codiceCatastale":"A022","regione":"trentino alto adige","provincia":"bolzano","cap":"39010","coordinate":{"lat":"11.146564","lng":"46.6346188"}},{"nome":"Chienes/Kiens","codice":"021021","codiceCatastale":"C625","regione":"trentino alto adige","provincia":"bolzano","cap":"39030","coordinate":{"lat":"11.83869","lng":"46.80813"}},{"nome":"Chiusa/Klausen","codice":"021022","codiceCatastale":"C652","regione":"trentino alto adige","provincia":"bolzano","cap":"39043","coordinate":{"lat":"11.56573","lng":"46.64001"}},{"nome":"Cimone","codice":"022058","codiceCatastale":"C700","regione":"trentino alto adige","provincia":"trento","cap":"38060","coordinate":{"lat":"11.0699","lng":"45.97902"}},{"nome":"Cinte Tesino","codice":"022059","codiceCatastale":"C712","regione":"trentino alto adige","provincia":"trento","cap":"38050","coordinate":{"lat":"11.61547","lng":"46.05611"}},{"nome":"Cis","codice":"022060","codiceCatastale":"C727","regione":"trentino alto adige","provincia":"trento","cap":"38020","coordinate":{"lat":"11.0015868","lng":"46.3996927"}},{"nome":"Civezzano","codice":"022061","codiceCatastale":"C756","regione":"trentino alto adige","provincia":"trento","cap":"38045","coordinate":{"lat":"11.166666666","lng":"46.083333333"}},{"nome":"Cles","codice":"022062","codiceCatastale":"C794","regione":"trentino alto adige","provincia":"trento","cap":"38023","coordinate":{"lat":"11.033333333","lng":"46.366666666"}},{"nome":"Comano Terme","codice":"022228","codiceCatastale":"M314","regione":"trentino alto adige","provincia":"trento","cap":"38077","coordinate":{"lat":"10.866666666","lng":"46.166666666"}},{"nome":"Commezzadura","codice":"022064","codiceCatastale":"C931","regione":"trentino alto adige","provincia":"trento","cap":"38020","coordinate":{"lat":"10.833333333","lng":"46.316666666"}},{"nome":"Contà","codice":"022242","codiceCatastale":"M356","regione":"trentino alto adige","provincia":"trento","cap":"38093","coordinate":{"lat":"11.033333333","lng":"46.283333333"}},{"nome":"Cornedo all'Isarco/Karneid","codice":"021023","codiceCatastale":"B799","regione":"trentino alto adige","provincia":"bolzano","cap":"39053","coordinate":{"lat":"11.4048","lng":"46.4898"}},{"nome":"Cortaccia sulla strada del vino/Kurtatsch an der Weinstraße","codice":"021024","codiceCatastale":"D048","regione":"trentino alto adige","provincia":"bolzano","cap":"39040","coordinate":{"lat":"11.22388","lng":"46.31401"}},{"nome":"Cortina sulla strada del vino/Kurtinig an der Weinstraße","codice":"021025","codiceCatastale":"D075","regione":"trentino alto adige","provincia":"bolzano","cap":"39040","coordinate":{"lat":"11.22188","lng":"46.26941"}},{"nome":"Corvara in Badia/Corvara","codice":"021026","codiceCatastale":"D079","regione":"trentino alto adige","provincia":"bolzano","cap":"39033","coordinate":{"lat":"11.87342","lng":"46.55037"}},{"nome":"Croviana","codice":"022068","codiceCatastale":"D188","regione":"trentino alto adige","provincia":"trento","cap":"38027","coordinate":{"lat":"10.9044349","lng":"46.3447169"}},{"nome":"Curon Venosta/Graun im Vinschgau","codice":"021027","codiceCatastale":"D222","regione":"trentino alto adige","provincia":"bolzano","cap":"39027","coordinate":{"lat":"10.54265","lng":"46.80832"}},{"nome":"Dambel","codice":"022071","codiceCatastale":"D246","regione":"trentino alto adige","provincia":"trento","cap":"38010","coordinate":{"lat":"11.1","lng":"46.4"}},{"nome":"Denno","codice":"022074","codiceCatastale":"D273","regione":"trentino alto adige","provincia":"trento","cap":"38010","coordinate":{"lat":"11.05","lng":"46.283333333"}},{"nome":"Dimaro Folgarida","codice":"022233","codiceCatastale":"M366","regione":"trentino alto adige","provincia":"trento","cap":"38025","coordinate":{"lat":"10.874379","lng":"46.325938"}},{"nome":"Dobbiaco/Toblach","codice":"021028","codiceCatastale":"D311","regione":"trentino alto adige","provincia":"bolzano","cap":"39034","coordinate":{"lat":"12.2229283","lng":"46.7343974"}},{"nome":"Drena","codice":"022078","codiceCatastale":"D365","regione":"trentino alto adige","provincia":"trento","cap":"38074","coordinate":{"lat":"10.95","lng":"45.966666666"}},{"nome":"Dro","codice":"022079","codiceCatastale":"D371","regione":"trentino alto adige","provincia":"trento","cap":"38074","coordinate":{"lat":"10.916666666","lng":"45.966666666"}},{"nome":"Egna/Neumarkt","codice":"021029","codiceCatastale":"D392","regione":"trentino alto adige","provincia":"bolzano","cap":"39044","coordinate":{"lat":"11.27337","lng":"46.31777"}},{"nome":"Fai della Paganella","codice":"022081","codiceCatastale":"D468","regione":"trentino alto adige","provincia":"trento","cap":"38010","coordinate":{"lat":"11.066666666","lng":"46.183333333"}},{"nome":"Falzes/Pfalzen","codice":"021030","codiceCatastale":"D484","regione":"trentino alto adige","provincia":"bolzano","cap":"39030","coordinate":{"lat":"11.88308","lng":"46.81359"}},{"nome":"Fiavè","codice":"022083","codiceCatastale":"D565","regione":"trentino alto adige","provincia":"trento","cap":"38075","coordinate":{"lat":"10.842222222","lng":"46.004444444"}},{"nome":"Fiè allo Sciliar/Völs am Schlern","codice":"021031","codiceCatastale":"D571","regione":"trentino alto adige","provincia":"bolzano","cap":"39050","coordinate":{"lat":"11.5","lng":"46.516666666"}},{"nome":"Fierozzo","codice":"022085","codiceCatastale":"D573","regione":"trentino alto adige","provincia":"trento","cap":"38050","coordinate":{"lat":"11.318277777","lng":"46.111083333"}},{"nome":"Folgaria","codice":"022087","codiceCatastale":"D651","regione":"trentino alto adige","provincia":"trento","cap":"38064","coordinate":{"lat":"11.183333333","lng":"45.916666666"}},{"nome":"Fornace","codice":"022089","codiceCatastale":"D714","regione":"trentino alto adige","provincia":"trento","cap":"38040","coordinate":{"lat":"11.20751","lng":"46.11805"}},{"nome":"Fortezza/Franzensfeste","codice":"021032","codiceCatastale":"D731","regione":"trentino alto adige","provincia":"bolzano","cap":"39045","coordinate":{"lat":"11.60998","lng":"46.78963"}},{"nome":"Frassilongo","codice":"022090","codiceCatastale":"D775","regione":"trentino alto adige","provincia":"trento","cap":"38050","coordinate":{"lat":"11.3","lng":"46.083333333"}},{"nome":"Funes/Villnöß","codice":"021033","codiceCatastale":"D821","regione":"trentino alto adige","provincia":"bolzano","cap":"39040","coordinate":{"lat":"11.67828","lng":"46.64282"}},{"nome":"Gais/Gais","codice":"021034","codiceCatastale":"D860","regione":"trentino alto adige","provincia":"bolzano","cap":"39030","coordinate":{"lat":"11.95","lng":"46.833333333"}},{"nome":"Gargazzone/Gargazon","codice":"021035","codiceCatastale":"D923","regione":"trentino alto adige","provincia":"bolzano","cap":"39010","coordinate":{"lat":"11.20156","lng":"46.58456"}},{"nome":"Garniga Terme","codice":"022091","codiceCatastale":"D928","regione":"trentino alto adige","provincia":"trento","cap":"38060","coordinate":{"lat":"11.08706","lng":"46.00253"}},{"nome":"Giovo","codice":"022092","codiceCatastale":"E048","regione":"trentino alto adige","provincia":"trento","cap":"38030","coordinate":{"lat":"11.152777777","lng":"46.155833333"}},{"nome":"Giustino","codice":"022093","codiceCatastale":"E065","regione":"trentino alto adige","provincia":"trento","cap":"38086","coordinate":{"lat":"10.76801","lng":"46.14996"}},{"nome":"Glorenza/Glurns","codice":"021036","codiceCatastale":"E069","regione":"trentino alto adige","provincia":"bolzano","cap":"39020","coordinate":{"lat":"10.55684","lng":"46.67105"}},{"nome":"Grigno","codice":"022095","codiceCatastale":"E178","regione":"trentino alto adige","provincia":"trento","cap":"38055","coordinate":{"lat":"11.63379","lng":"46.01601"}},{"nome":"Imer","codice":"022097","codiceCatastale":"E288","regione":"trentino alto adige","provincia":"trento","cap":"38050","coordinate":{"lat":"11.797338888","lng":"46.152038888"}},{"nome":"Isera","codice":"022098","codiceCatastale":"E334","regione":"trentino alto adige","provincia":"trento","cap":"38060","coordinate":{"lat":"11.016666666","lng":"45.883333333"}},{"nome":"La Valle/Wengen","codice":"021117","codiceCatastale":"E491","regione":"trentino alto adige","provincia":"bolzano","cap":"39030","coordinate":{"lat":"11.92399","lng":"46.65763"}},{"nome":"Laces/Latsch","codice":"021037","codiceCatastale":"E398","regione":"trentino alto adige","provincia":"bolzano","cap":"39021","coordinate":{"lat":"10.866666666","lng":"46.616666666"}},{"nome":"Lagundo/Algund","codice":"021038","codiceCatastale":"E412","regione":"trentino alto adige","provincia":"bolzano","cap":"39022","coordinate":{"lat":"11.133333333","lng":"46.683333333"}},{"nome":"Laion/Lajen","codice":"021039","codiceCatastale":"E420","regione":"trentino alto adige","provincia":"bolzano","cap":"39040","coordinate":{"lat":"11.56559","lng":"46.60809"}},{"nome":"Laives/Leifers","codice":"021040","codiceCatastale":"E421","regione":"trentino alto adige","provincia":"bolzano","cap":"39055","coordinate":{"lat":"11.340477777","lng":"46.427616666"}},{"nome":"Lana/Lana","codice":"021041","codiceCatastale":"E434","regione":"trentino alto adige","provincia":"bolzano","cap":"39011","coordinate":{"lat":"11.166666666","lng":"46.616666666"}},{"nome":"Lasa/Laas","codice":"021042","codiceCatastale":"E457","regione":"trentino alto adige","provincia":"bolzano","cap":"39023","coordinate":{"lat":"10.7","lng":"46.616666666"}},{"nome":"Lauregno/Laurein","codice":"021043","codiceCatastale":"E481","regione":"trentino alto adige","provincia":"bolzano","cap":"39040","coordinate":{"lat":"11.06177","lng":"46.45431"}},{"nome":"Lavarone","codice":"022102","codiceCatastale":"E492","regione":"trentino alto adige","provincia":"trento","cap":"38046","coordinate":{"lat":"11.266666666","lng":"45.933333333"}},{"nome":"Lavis","codice":"022103","codiceCatastale":"E500","regione":"trentino alto adige","provincia":"trento","cap":"38015","coordinate":{"lat":"11.11226","lng":"46.13901"}},{"nome":"Ledro","codice":"022229","codiceCatastale":"M313","regione":"trentino alto adige","provincia":"trento","cap":"38067","coordinate":{"lat":"10.733333333","lng":"45.883333333"}},{"nome":"Levico Terme","codice":"022104","codiceCatastale":"E565","regione":"trentino alto adige","provincia":"trento","cap":"38056","coordinate":{"lat":"11.3","lng":"46.016666666"}},{"nome":"Livo","codice":"022106","codiceCatastale":"E624","regione":"trentino alto adige","provincia":"trento","cap":"38020","coordinate":{"lat":"11.016666666","lng":"46.4"}},{"nome":"Lona-Lases","codice":"022108","codiceCatastale":"E664","regione":"trentino alto adige","provincia":"trento","cap":"38040","coordinate":{"lat":"11.216666666","lng":"46.15"}},{"nome":"Luserna","codice":"022109","codiceCatastale":"E757","regione":"trentino alto adige","provincia":"trento","cap":"38040","coordinate":{"lat":"11.323611111","lng":"45.9225"}},{"nome":"Luson/Lüsen","codice":"021044","codiceCatastale":"E764","regione":"trentino alto adige","provincia":"bolzano","cap":"39040","coordinate":{"lat":"11.76098","lng":"46.74623"}},{"nome":"Madruzzo","codice":"022243","codiceCatastale":"M357","regione":"trentino alto adige","provincia":"trento","cap":"38076","coordinate":{"lat":"10.983333333","lng":"46.05"}},{"nome":"Magrè sulla strada del vino/Margreid an der Weinstraße","codice":"021045","codiceCatastale":"E829","regione":"trentino alto adige","provincia":"bolzano","cap":"39040","coordinate":{"lat":"11.21068","lng":"46.28791"}},{"nome":"Malé","codice":"022110","codiceCatastale":"E850","regione":"trentino alto adige","provincia":"trento","cap":"38027","coordinate":{"lat":"10.9125","lng":"46.353611111"}},{"nome":"Malles Venosta/Mals","codice":"021046","codiceCatastale":"E862","regione":"trentino alto adige","provincia":"bolzano","cap":"39024","coordinate":{"lat":"10.54655","lng":"46.68791"}},{"nome":"Marebbe/Enneberg","codice":"021047","codiceCatastale":"E938","regione":"trentino alto adige","provincia":"bolzano","cap":"39030","coordinate":{"lat":"11.9312299","lng":"46.6979997"}},{"nome":"Marlengo/Marling","codice":"021048","codiceCatastale":"E959","regione":"trentino alto adige","provincia":"bolzano","cap":"39020","coordinate":{"lat":"11.1402909","lng":"46.6555608"}},{"nome":"Martello/Martell","codice":"021049","codiceCatastale":"E981","regione":"trentino alto adige","provincia":"bolzano","cap":"39020","coordinate":{"lat":"10.78042","lng":"46.55459"}},{"nome":"Massimeno","codice":"022112","codiceCatastale":"F045","regione":"trentino alto adige","provincia":"trento","cap":"38086","coordinate":{"lat":"10.766666666","lng":"46.15"}},{"nome":"Mazzin","codice":"022113","codiceCatastale":"F068","regione":"trentino alto adige","provincia":"trento","cap":"38030","coordinate":{"lat":"11.70061","lng":"46.45752"}},{"nome":"Meltina/Mölten","codice":"021050","codiceCatastale":"F118","regione":"trentino alto adige","provincia":"bolzano","cap":"39010","coordinate":{"lat":"11.25487","lng":"46.58744"}},{"nome":"Merano/Meran","codice":"021051","codiceCatastale":"F132","regione":"trentino alto adige","provincia":"bolzano","cap":"39012","coordinate":{"lat":"11.163888888","lng":"46.668888888"}},{"nome":"Mezzana","codice":"022114","codiceCatastale":"F168","regione":"trentino alto adige","provincia":"trento","cap":"38020","coordinate":{"lat":"10.8","lng":"46.316666666"}},{"nome":"Mezzano","codice":"022115","codiceCatastale":"F176","regione":"trentino alto adige","provincia":"trento","cap":"38050","coordinate":{"lat":"11.80876","lng":"46.15393"}},{"nome":"Mezzocorona","codice":"022116","codiceCatastale":"F183","regione":"trentino alto adige","provincia":"trento","cap":"38016","coordinate":{"lat":"11.116666666","lng":"46.216666666"}},{"nome":"Mezzolombardo","codice":"022117","codiceCatastale":"F187","regione":"trentino alto adige","provincia":"trento","cap":"38017","coordinate":{"lat":"11.097777777","lng":"46.209722222"}},{"nome":"Moena","codice":"022118","codiceCatastale":"F263","regione":"trentino alto adige","provincia":"trento","cap":"38035","coordinate":{"lat":"11.6593511","lng":"46.3768257"}},{"nome":"Molveno","codice":"022120","codiceCatastale":"F307","regione":"trentino alto adige","provincia":"trento","cap":"38018","coordinate":{"lat":"10.964722222","lng":"46.143055555"}},{"nome":"Monguelfo-Tesido/Welsberg-Taisten","codice":"021052","codiceCatastale":"F371","regione":"trentino alto adige","provincia":"bolzano","cap":"39035","coordinate":{"lat":"12.1064355","lng":"46.7560435"}},{"nome":"Montagna/Montan","codice":"021053","codiceCatastale":"F392","regione":"trentino alto adige","provincia":"bolzano","cap":"39040","coordinate":{"lat":"11.30027","lng":"46.33033"}},{"nome":"Mori","codice":"022123","codiceCatastale":"F728","regione":"trentino alto adige","provincia":"trento","cap":"38065","coordinate":{"lat":"10.9817","lng":"45.8513"}},{"nome":"Moso in Passiria/Moos in Passeier","codice":"021054","codiceCatastale":"F766","regione":"trentino alto adige","provincia":"bolzano","cap":"39013","coordinate":{"lat":"11.16708","lng":"46.83154"}},{"nome":"Nago-Torbole","codice":"022124","codiceCatastale":"F835","regione":"trentino alto adige","provincia":"trento","cap":"38060","coordinate":{"lat":"10.891111111","lng":"45.875833333"}},{"nome":"Nalles/Nals","codice":"021055","codiceCatastale":"F836","regione":"trentino alto adige","provincia":"bolzano","cap":"39010","coordinate":{"lat":"11.20625","lng":"46.54341"}},{"nome":"Naturno/Naturns","codice":"021056","codiceCatastale":"F849","regione":"trentino alto adige","provincia":"bolzano","cap":"39025","coordinate":{"lat":"11.008408333","lng":"46.650219444"}},{"nome":"Naz-Sciaves/Natz-Schabs","codice":"021057","codiceCatastale":"F856","regione":"trentino alto adige","provincia":"bolzano","cap":"39040","coordinate":{"lat":"11.66558","lng":"46.76883"}},{"nome":"Nogaredo","codice":"022127","codiceCatastale":"F920","regione":"trentino alto adige","provincia":"trento","cap":"38060","coordinate":{"lat":"11.033333333","lng":"45.916666666"}},{"nome":"Nomi","codice":"022128","codiceCatastale":"F929","regione":"trentino alto adige","provincia":"trento","cap":"38060","coordinate":{"lat":"11.066666666","lng":"45.933333333"}},{"nome":"Nova Levante/Welschnofen","codice":"021058","codiceCatastale":"F949","regione":"trentino alto adige","provincia":"bolzano","cap":"39056","coordinate":{"lat":"11.53942","lng":"46.42899"}},{"nome":"Nova Ponente/Deutschnofen","codice":"021059","codiceCatastale":"F950","regione":"trentino alto adige","provincia":"bolzano","cap":"39050","coordinate":{"lat":"11.42523","lng":"46.41404"}},{"nome":"Novaledo","codice":"022129","codiceCatastale":"F947","regione":"trentino alto adige","provincia":"trento","cap":"38050","coordinate":{"lat":"11.366666666","lng":"46.016666666"}},{"nome":"Novella","codice":"022253","codiceCatastale":"M430","regione":"trentino alto adige","provincia":"trento","cap":"38028","coordinate":{"lat":"11.05843","lng":"46.39122"}},{"nome":"Ora/Auer","codice":"021060","codiceCatastale":"G083","regione":"trentino alto adige","provincia":"bolzano","cap":"39040","coordinate":{"lat":"11.29747","lng":"46.34687"}},{"nome":"Ortisei/St. Ulrich","codice":"021061","codiceCatastale":"G140","regione":"trentino alto adige","provincia":"bolzano","cap":"39046","coordinate":{"lat":"11.6721382","lng":"46.5752077"}},{"nome":"Ospedaletto","codice":"022130","codiceCatastale":"G168","regione":"trentino alto adige","provincia":"trento","cap":"38050","coordinate":{"lat":"11.55291","lng":"46.04349"}},{"nome":"Ossana","codice":"022131","codiceCatastale":"G173","regione":"trentino alto adige","provincia":"trento","cap":"38026","coordinate":{"lat":"10.733333333","lng":"46.3"}},{"nome":"Palù del Fersina","codice":"022133","codiceCatastale":"G296","regione":"trentino alto adige","provincia":"trento","cap":"38050","coordinate":{"lat":"11.35","lng":"46.133333333"}},{"nome":"Panchià","codice":"022134","codiceCatastale":"G305","regione":"trentino alto adige","provincia":"trento","cap":"38030","coordinate":{"lat":"11.5419719","lng":"46.285889"}},{"nome":"Parcines/Partschins","codice":"021062","codiceCatastale":"G328","regione":"trentino alto adige","provincia":"bolzano","cap":"39020","coordinate":{"lat":"11.073333333","lng":"46.684166666"}},{"nome":"Peio","codice":"022136","codiceCatastale":"G419","regione":"trentino alto adige","provincia":"trento","cap":"38024","coordinate":{"lat":"10.689166666","lng":"46.355277777"}},{"nome":"Pellizzano","codice":"022137","codiceCatastale":"G428","regione":"trentino alto adige","provincia":"trento","cap":"38020","coordinate":{"lat":"10.7596278","lng":"46.3097017"}},{"nome":"Pelugo","codice":"022138","codiceCatastale":"G429","regione":"trentino alto adige","provincia":"trento","cap":"38079","coordinate":{"lat":"10.72324","lng":"46.08798"}},{"nome":"Perca/Percha","codice":"021063","codiceCatastale":"G443","regione":"trentino alto adige","provincia":"bolzano","cap":"39030","coordinate":{"lat":"11.98339","lng":"46.79343"}},{"nome":"Pergine Valsugana","codice":"022139","codiceCatastale":"G452","regione":"trentino alto adige","provincia":"trento","cap":"38057","coordinate":{"lat":"11.233333333","lng":"46.066666666"}},{"nome":"Pieve di Bono-Prezzo","codice":"022234","codiceCatastale":"M365","regione":"trentino alto adige","provincia":"trento","cap":"38085","coordinate":{"lat":"10.641388888","lng":"45.943055555"}},{"nome":"Pieve Tesino","codice":"022142","codiceCatastale":"G656","regione":"trentino alto adige","provincia":"trento","cap":"38050","coordinate":{"lat":"11.60908","lng":"46.06906"}},{"nome":"Pinzolo","codice":"022143","codiceCatastale":"G681","regione":"trentino alto adige","provincia":"trento","cap":"38086","coordinate":{"lat":"10.766","lng":"46.1599"}},{"nome":"Plaus/Plaus","codice":"021064","codiceCatastale":"G299","regione":"trentino alto adige","provincia":"bolzano","cap":"39025","coordinate":{"lat":"11.0414981","lng":"46.6565754"}},{"nome":"Pomarolo","codice":"022144","codiceCatastale":"G808","regione":"trentino alto adige","provincia":"trento","cap":"38060","coordinate":{"lat":"11.04308","lng":"45.9281"}},{"nome":"Ponte Gardena/Waidbruck","codice":"021065","codiceCatastale":"G830","regione":"trentino alto adige","provincia":"bolzano","cap":"39040","coordinate":{"lat":"11.53088","lng":"46.59712"}},{"nome":"Porte di Rendena","codice":"022244","codiceCatastale":"M358","regione":"trentino alto adige","provincia":"trento","cap":"38094","coordinate":{"lat":"10.71613","lng":"46.07902"}},{"nome":"Postal/Burgstall","codice":"021066","codiceCatastale":"G936","regione":"trentino alto adige","provincia":"bolzano","cap":"39014","coordinate":{"lat":"11.19313","lng":"46.60949"}},{"nome":"Prato allo Stelvio/Prad am Stilfserjoch","codice":"021067","codiceCatastale":"H004","regione":"trentino alto adige","provincia":"bolzano","cap":"39026","coordinate":{"lat":"10.59136","lng":"46.61901"}},{"nome":"Predaia","codice":"022230","codiceCatastale":"M344","regione":"trentino alto adige","provincia":"trento","cap":"38012","coordinate":{"lat":"11.08048","lng":"46.30194"}},{"nome":"Predazzo","codice":"022147","codiceCatastale":"H018","regione":"trentino alto adige","provincia":"trento","cap":"38037","coordinate":{"lat":"11.6","lng":"46.316666666"}},{"nome":"Predoi/Prettau","codice":"021068","codiceCatastale":"H019","regione":"trentino alto adige","provincia":"bolzano","cap":"39030","coordinate":{"lat":"12.10663","lng":"47.04031"}},{"nome":"Primiero San Martino di Castrozza","codice":"022245","codiceCatastale":"M359","regione":"trentino alto adige","provincia":"trento","cap":"38054","coordinate":{"lat":"11.8298","lng":"46.1771"}},{"nome":"Proves/Proveis","codice":"021069","codiceCatastale":"H081","regione":"trentino alto adige","provincia":"bolzano","cap":"39040","coordinate":{"lat":"11.02247","lng":"46.47661"}},{"nome":"Rabbi","codice":"022150","codiceCatastale":"H146","regione":"trentino alto adige","provincia":"trento","cap":"38020","coordinate":{"lat":"10.85","lng":"46.4"}},{"nome":"Racines/Ratschings","codice":"021070","codiceCatastale":"H152","regione":"trentino alto adige","provincia":"bolzano","cap":"39040","coordinate":{"lat":"11.376","lng":"46.8801"}},{"nome":"Rasun-Anterselva/Rasen-Antholz","codice":"021071","codiceCatastale":"H189","regione":"trentino alto adige","provincia":"bolzano","cap":"39030","coordinate":{"lat":"12.1","lng":"46.85"}},{"nome":"Renon/Ritten","codice":"021072","codiceCatastale":"H236","regione":"trentino alto adige","provincia":"bolzano","cap":"39054","coordinate":{"lat":"11.45728","lng":"46.54152"}},{"nome":"Rifiano/Riffian","codice":"021073","codiceCatastale":"H284","regione":"trentino alto adige","provincia":"bolzano","cap":"39010","coordinate":{"lat":"11.183333333","lng":"46.7"}},{"nome":"Rio di Pusteria/Mühlbach","codice":"021074","codiceCatastale":"H299","regione":"trentino alto adige","provincia":"bolzano","cap":"39037","coordinate":{"lat":"11.66754","lng":"46.79658"}},{"nome":"Riva del Garda","codice":"022153","codiceCatastale":"H330","regione":"trentino alto adige","provincia":"trento","cap":"38066","coordinate":{"lat":"10.85","lng":"45.883333333"}},{"nome":"Rodengo/Rodeneck","codice":"021075","codiceCatastale":"H475","regione":"trentino alto adige","provincia":"bolzano","cap":"39037","coordinate":{"lat":"11.683333333","lng":"46.783333333"}},{"nome":"Romeno","codice":"022155","codiceCatastale":"H517","regione":"trentino alto adige","provincia":"trento","cap":"38010","coordinate":{"lat":"11.116666666","lng":"46.4"}},{"nome":"Roncegno Terme","codice":"022156","codiceCatastale":"H528","regione":"trentino alto adige","provincia":"trento","cap":"38050","coordinate":{"lat":"11.41","lng":"46.050833333"}},{"nome":"Ronchi Valsugana","codice":"022157","codiceCatastale":"H532","regione":"trentino alto adige","provincia":"trento","cap":"38051","coordinate":{"lat":"11.433333333","lng":"46.066666666"}},{"nome":"Ronzo-Chienis","codice":"022135","codiceCatastale":"M303","regione":"trentino alto adige","provincia":"trento","cap":"38060","coordinate":{"lat":"10.950555555","lng":"45.891111111"}},{"nome":"Ronzone","codice":"022159","codiceCatastale":"H552","regione":"trentino alto adige","provincia":"trento","cap":"38010","coordinate":{"lat":"11.149","lng":"46.42302"}},{"nome":"Roverè della Luna","codice":"022160","codiceCatastale":"H607","regione":"trentino alto adige","provincia":"trento","cap":"38030","coordinate":{"lat":"11.166666666","lng":"46.25"}},{"nome":"Rovereto","codice":"022161","codiceCatastale":"H612","regione":"trentino alto adige","provincia":"trento","cap":"38068","coordinate":{"lat":"11.034166666","lng":"45.883333333"}},{"nome":"Ruffrè-Mendola","codice":"022162","codiceCatastale":"H634","regione":"trentino alto adige","provincia":"trento","cap":"38010","coordinate":{"lat":"11.183333333","lng":"46.416666666"}},{"nome":"Rumo","codice":"022163","codiceCatastale":"H639","regione":"trentino alto adige","provincia":"trento","cap":"38020","coordinate":{"lat":"11.016666666","lng":"46.45"}},{"nome":"Sagron Mis","codice":"022164","codiceCatastale":"H666","regione":"trentino alto adige","provincia":"trento","cap":"38050","coordinate":{"lat":"11.9442","lng":"46.1956"}},{"nome":"Salorno sulla strada del vino/Salurn an der Weinstraße","codice":"021076","codiceCatastale":"H719","regione":"trentino alto adige","provincia":"bolzano","cap":"39040","coordinate":{"lat":"11.2","lng":"46.233333333"}},{"nome":"Samone","codice":"022165","codiceCatastale":"H754","regione":"trentino alto adige","provincia":"trento","cap":"38050","coordinate":{"lat":"11.52278","lng":"46.08157"}},{"nome":"San Candido/Innichen","codice":"021077","codiceCatastale":"H786","regione":"trentino alto adige","provincia":"bolzano","cap":"39038","coordinate":{"lat":"12.27855","lng":"46.7324"}},{"nome":"San Genesio Atesino/Jenesien","codice":"021079","codiceCatastale":"H858","regione":"trentino alto adige","provincia":"bolzano","cap":"39050","coordinate":{"lat":"11.32971","lng":"46.5346"}},{"nome":"San Giovanni di Fassa-Sèn Jan","codice":"022250","codiceCatastale":"M390","regione":"trentino alto adige","provincia":"trento","cap":"38036","coordinate":{"lat":"11.686411","lng":"46.430342"}},{"nome":"San Leonardo in Passiria/St. Leonhard in Passeier","codice":"021080","codiceCatastale":"H952","regione":"trentino alto adige","provincia":"bolzano","cap":"39015","coordinate":{"lat":"11.24577","lng":"46.81282"}},{"nome":"San Lorenzo di Sebato/St. Lorenzen","codice":"021081","codiceCatastale":"H956","regione":"trentino alto adige","provincia":"bolzano","cap":"39030","coordinate":{"lat":"11.9030709","lng":"46.7834543"}},{"nome":"San Lorenzo Dorsino","codice":"022231","codiceCatastale":"M345","regione":"trentino alto adige","provincia":"trento","cap":"38078","coordinate":{"lat":"10.9095","lng":"46.0775"}},{"nome":"San Martino in Badia/St. Martin in Thurn","codice":"021082","codiceCatastale":"H988","regione":"trentino alto adige","provincia":"bolzano","cap":"39030","coordinate":{"lat":"11.89809","lng":"46.68153"}},{"nome":"San Martino in Passiria/St. Martin in Passeier","codice":"021083","codiceCatastale":"H989","regione":"trentino alto adige","provincia":"bolzano","cap":"39010","coordinate":{"lat":"11.22727","lng":"46.78392"}},{"nome":"San Michele all'Adige","codice":"022167","codiceCatastale":"I042","regione":"trentino alto adige","provincia":"trento","cap":"38098","coordinate":{"lat":"11.1346","lng":"46.1938"}},{"nome":"San Pancrazio/St. Pankraz","codice":"021084","codiceCatastale":"I065","regione":"trentino alto adige","provincia":"bolzano","cap":"39010","coordinate":{"lat":"11.0863613","lng":"46.5865144"}},{"nome":"Sant'Orsola Terme","codice":"022168","codiceCatastale":"I354","regione":"trentino alto adige","provincia":"trento","cap":"38050","coordinate":{"lat":"11.3","lng":"46.116666666"}},{"nome":"Santa Cristina Valgardena/St. Christina in Gröden","codice":"021085","codiceCatastale":"I173","regione":"trentino alto adige","provincia":"bolzano","cap":"39047","coordinate":{"lat":"11.73216","lng":"46.56299"}},{"nome":"Sanzeno","codice":"022169","codiceCatastale":"I411","regione":"trentino alto adige","provincia":"trento","cap":"38010","coordinate":{"lat":"11.066666666","lng":"46.366666666"}},{"nome":"Sarentino/Sarntal","codice":"021086","codiceCatastale":"I431","regione":"trentino alto adige","provincia":"bolzano","cap":"39058","coordinate":{"lat":"11.356238888","lng":"46.643508333"}},{"nome":"Sarnonico","codice":"022170","codiceCatastale":"I439","regione":"trentino alto adige","provincia":"trento","cap":"38010","coordinate":{"lat":"11.141","lng":"46.4182"}},{"nome":"Scena/Schenna","codice":"021087","codiceCatastale":"I519","regione":"trentino alto adige","provincia":"bolzano","cap":"39017","coordinate":{"lat":"11.18627","lng":"46.69012"}},{"nome":"Scurelle","codice":"022171","codiceCatastale":"I554","regione":"trentino alto adige","provincia":"trento","cap":"38050","coordinate":{"lat":"11.50653","lng":"46.06511"}},{"nome":"Segonzano","codice":"022172","codiceCatastale":"I576","regione":"trentino alto adige","provincia":"trento","cap":"38047","coordinate":{"lat":"11.266666666","lng":"46.183333333"}},{"nome":"Sella Giudicarie","codice":"022246","codiceCatastale":"M360","regione":"trentino alto adige","provincia":"trento","cap":"38087","coordinate":{"lat":"10.669444444","lng":"45.984166666"}},{"nome":"Selva dei Molini/Mühlwald","codice":"021088","codiceCatastale":"I593","regione":"trentino alto adige","provincia":"bolzano","cap":"39030","coordinate":{"lat":"11.8601872","lng":"46.8909316"}},{"nome":"Selva di Val Gardena/Wolkenstein in Gröden","codice":"021089","codiceCatastale":"I591","regione":"trentino alto adige","provincia":"bolzano","cap":"39048","coordinate":{"lat":"11.76038","lng":"46.55472"}},{"nome":"Senale-San Felice/Unsere Liebe Frau im Walde-St. Felix","codice":"021118","codiceCatastale":"I603","regione":"trentino alto adige","provincia":"bolzano","cap":"39010","coordinate":{"lat":"11.13022","lng":"46.49429"}},{"nome":"Senales/Schnals","codice":"021091","codiceCatastale":"I604","regione":"trentino alto adige","provincia":"bolzano","cap":"39020","coordinate":{"lat":"10.916666666","lng":"46.7"}},{"nome":"Sesto/Sexten","codice":"021092","codiceCatastale":"I687","regione":"trentino alto adige","provincia":"bolzano","cap":"39030","coordinate":{"lat":"12.35","lng":"46.7"}},{"nome":"Sfruz","codice":"022173","codiceCatastale":"I714","regione":"trentino alto adige","provincia":"trento","cap":"38010","coordinate":{"lat":"11.116666666","lng":"46.333333333"}},{"nome":"Silandro/Schlanders","codice":"021093","codiceCatastale":"I729","regione":"trentino alto adige","provincia":"bolzano","cap":"39028","coordinate":{"lat":"10.76809","lng":"46.62831"}},{"nome":"Sluderno/Schluderns","codice":"021094","codiceCatastale":"I771","regione":"trentino alto adige","provincia":"bolzano","cap":"39020","coordinate":{"lat":"10.5848173","lng":"46.6645383"}},{"nome":"Soraga di Fassa","codice":"022176","codiceCatastale":"I839","regione":"trentino alto adige","provincia":"trento","cap":"38030","coordinate":{"lat":"11.66822","lng":"46.39593"}},{"nome":"Sover","codice":"022177","codiceCatastale":"I871","regione":"trentino alto adige","provincia":"trento","cap":"38048","coordinate":{"lat":"11.316666666","lng":"46.216666666"}},{"nome":"Spiazzo","codice":"022179","codiceCatastale":"I899","regione":"trentino alto adige","provincia":"trento","cap":"38088","coordinate":{"lat":"10.73937","lng":"46.1036"}},{"nome":"Spormaggiore","codice":"022180","codiceCatastale":"I924","regione":"trentino alto adige","provincia":"trento","cap":"38010","coordinate":{"lat":"11.05","lng":"46.216666666"}},{"nome":"Sporminore","codice":"022181","codiceCatastale":"I925","regione":"trentino alto adige","provincia":"trento","cap":"38010","coordinate":{"lat":"11.033333333","lng":"46.233333333"}},{"nome":"Stelvio/Stilfs","codice":"021095","codiceCatastale":"I948","regione":"trentino alto adige","provincia":"bolzano","cap":"39020","coordinate":{"lat":"10.5458","lng":"46.59767"}},{"nome":"Stenico","codice":"022182","codiceCatastale":"I949","regione":"trentino alto adige","provincia":"trento","cap":"38070","coordinate":{"lat":"10.85","lng":"46.05"}},{"nome":"Storo","codice":"022183","codiceCatastale":"I964","regione":"trentino alto adige","provincia":"trento","cap":"38089","coordinate":{"lat":"10.580277777","lng":"45.848888888"}},{"nome":"Strembo","codice":"022184","codiceCatastale":"I975","regione":"trentino alto adige","provincia":"trento","cap":"38080","coordinate":{"lat":"10.75","lng":"46.116666666"}},{"nome":"Telve","codice":"022188","codiceCatastale":"L089","regione":"trentino alto adige","provincia":"trento","cap":"38050","coordinate":{"lat":"11.483333333","lng":"46.066666666"}},{"nome":"Telve di Sopra","codice":"022189","codiceCatastale":"L090","regione":"trentino alto adige","provincia":"trento","cap":"38050","coordinate":{"lat":"11.466666666","lng":"46.066666666"}},{"nome":"Tenna","codice":"022190","codiceCatastale":"L096","regione":"trentino alto adige","provincia":"trento","cap":"38050","coordinate":{"lat":"11.266666666","lng":"46.016666666"}},{"nome":"Tenno","codice":"022191","codiceCatastale":"L097","regione":"trentino alto adige","provincia":"trento","cap":"38060","coordinate":{"lat":"10.832222222","lng":"45.919444444"}},{"nome":"Terento/Terenten","codice":"021096","codiceCatastale":"L106","regione":"trentino alto adige","provincia":"bolzano","cap":"39030","coordinate":{"lat":"11.77604","lng":"46.82886"}},{"nome":"Terlano/Terlan","codice":"021097","codiceCatastale":"L108","regione":"trentino alto adige","provincia":"bolzano","cap":"39018","coordinate":{"lat":"11.2486777","lng":"46.5293011"}},{"nome":"Termeno sulla strada del vino/Tramin an der Weinstraße","codice":"021098","codiceCatastale":"L111","regione":"trentino alto adige","provincia":"bolzano","cap":"39040","coordinate":{"lat":"11.24228","lng":"46.34151"}},{"nome":"Terragnolo","codice":"022193","codiceCatastale":"L121","regione":"trentino alto adige","provincia":"trento","cap":"38060","coordinate":{"lat":"11.15","lng":"45.883333333"}},{"nome":"Terre d'Adige","codice":"022251","codiceCatastale":"M407","regione":"trentino alto adige","provincia":"trento","cap":"38010","coordinate":{"lat":"11.09722","lng":"46.15161"}},{"nome":"Terzolas","codice":"022195","codiceCatastale":"L145","regione":"trentino alto adige","provincia":"trento","cap":"38027","coordinate":{"lat":"10.926108","lng":"46.361309"}},{"nome":"Tesero","codice":"022196","codiceCatastale":"L147","regione":"trentino alto adige","provincia":"trento","cap":"38038","coordinate":{"lat":"11.51134","lng":"46.289338"}},{"nome":"Tesimo/Tisens","codice":"021099","codiceCatastale":"L149","regione":"trentino alto adige","provincia":"bolzano","cap":"39010","coordinate":{"lat":"11.16937","lng":"46.56542"}},{"nome":"Tione di Trento","codice":"022199","codiceCatastale":"L174","regione":"trentino alto adige","provincia":"trento","cap":"38079","coordinate":{"lat":"10.733333333","lng":"46.033333333"}},{"nome":"Tires/Tiers","codice":"021100","codiceCatastale":"L176","regione":"trentino alto adige","provincia":"bolzano","cap":"39050","coordinate":{"lat":"11.52748","lng":"46.4673482"}},{"nome":"Tirolo/Tirol","codice":"021101","codiceCatastale":"L178","regione":"trentino alto adige","provincia":"bolzano","cap":"39019","coordinate":{"lat":"11.15427","lng":"46.69102"}},{"nome":"Ton","codice":"022200","codiceCatastale":"L200","regione":"trentino alto adige","provincia":"trento","cap":"38010","coordinate":{"lat":"11.083333333","lng":"46.266666666"}},{"nome":"Torcegno","codice":"022202","codiceCatastale":"L211","regione":"trentino alto adige","provincia":"trento","cap":"38050","coordinate":{"lat":"11.45","lng":"46.066666666"}},{"nome":"Trambileno","codice":"022203","codiceCatastale":"L322","regione":"trentino alto adige","provincia":"trento","cap":"38068","coordinate":{"lat":"11.066666666","lng":"45.866666666"}},{"nome":"Tre Ville","codice":"022247","codiceCatastale":"M361","regione":"trentino alto adige","provincia":"trento","cap":"38095","coordinate":{"lat":"10.75","lng":"46.066666666"}},{"nome":"Trento","codice":"022205","codiceCatastale":"L378","regione":"trentino alto adige","provincia":"trento","cap":"38122","coordinate":{"lat":"11.11666667","lng":"46.06666667"}},{"nome":"Trodena nel parco naturale/Truden im Naturpark","codice":"021102","codiceCatastale":"L444","regione":"trentino alto adige","provincia":"bolzano","cap":"39040","coordinate":{"lat":"11.34982","lng":"46.32181"}},{"nome":"Tubre/Taufers im Münstertal","codice":"021103","codiceCatastale":"L455","regione":"trentino alto adige","provincia":"bolzano","cap":"39020","coordinate":{"lat":"10.464153","lng":"46.645612"}},{"nome":"Ultimo/Ulten","codice":"021104","codiceCatastale":"L490","regione":"trentino alto adige","provincia":"bolzano","cap":"39016","coordinate":{"lat":"11.00417","lng":"46.54832"}},{"nome":"Vadena/Pfatten","codice":"021105","codiceCatastale":"L527","regione":"trentino alto adige","provincia":"bolzano","cap":"39051","coordinate":{"lat":"11.3","lng":"46.416666666"}},{"nome":"Val di Vizze/Pfitsch","codice":"021107","codiceCatastale":"L564","regione":"trentino alto adige","provincia":"bolzano","cap":"39040","coordinate":{"lat":"11.466666666","lng":"46.9"}},{"nome":"Valdaone","codice":"022232","codiceCatastale":"M343","regione":"trentino alto adige","provincia":"trento","cap":"38091","coordinate":{"lat":"10.6221","lng":"45.9481"}},{"nome":"Valdaora/Olang","codice":"021106","codiceCatastale":"L552","regione":"trentino alto adige","provincia":"bolzano","cap":"39030","coordinate":{"lat":"12.02951","lng":"46.76027"}},{"nome":"Valfloriana","codice":"022209","codiceCatastale":"L575","regione":"trentino alto adige","provincia":"trento","cap":"38040","coordinate":{"lat":"11.35","lng":"46.25"}},{"nome":"Vallarsa","codice":"022210","codiceCatastale":"L588","regione":"trentino alto adige","provincia":"trento","cap":"38060","coordinate":{"lat":"11.11788","lng":"45.7828"}},{"nome":"Valle Aurina/Ahrntal","codice":"021108","codiceCatastale":"L595","regione":"trentino alto adige","provincia":"bolzano","cap":"39030","coordinate":{"lat":"11.980277777","lng":"46.996944444"}},{"nome":"Valle di Casies/Gsies","codice":"021109","codiceCatastale":"L601","regione":"trentino alto adige","provincia":"bolzano","cap":"39035","coordinate":{"lat":"12.17939","lng":"46.76833"}},{"nome":"Vallelaghi","codice":"022248","codiceCatastale":"M362","regione":"trentino alto adige","provincia":"trento","cap":"38096","coordinate":{"lat":"10.983333333","lng":"46.066666666"}},{"nome":"Vandoies/Vintl","codice":"021110","codiceCatastale":"L660","regione":"trentino alto adige","provincia":"bolzano","cap":"39030","coordinate":{"lat":"11.72068","lng":"46.81513"}},{"nome":"Varna/Vahrn","codice":"021111","codiceCatastale":"L687","regione":"trentino alto adige","provincia":"bolzano","cap":"39040","coordinate":{"lat":"11.6345693","lng":"46.7403856"}},{"nome":"Velturno/Feldthurns","codice":"021116","codiceCatastale":"L724","regione":"trentino alto adige","provincia":"bolzano","cap":"39040","coordinate":{"lat":"11.59712","lng":"46.66705"}},{"nome":"Verano/Vöran","codice":"021112","codiceCatastale":"L745","regione":"trentino alto adige","provincia":"bolzano","cap":"39010","coordinate":{"lat":"11.226388888","lng":"46.604722222"}},{"nome":"Vermiglio","codice":"022213","codiceCatastale":"L769","regione":"trentino alto adige","provincia":"trento","cap":"38029","coordinate":{"lat":"10.683333333","lng":"46.3"}},{"nome":"Vignola-Falesina","codice":"022216","codiceCatastale":"L886","regione":"trentino alto adige","provincia":"trento","cap":"38050","coordinate":{"lat":"11.27738","lng":"46.04436"}},{"nome":"Villa Lagarina","codice":"022222","codiceCatastale":"L957","regione":"trentino alto adige","provincia":"trento","cap":"38060","coordinate":{"lat":"11.033333333","lng":"45.916666666"}},{"nome":"Villabassa/Niederdorf","codice":"021113","codiceCatastale":"L915","regione":"trentino alto adige","provincia":"bolzano","cap":"39039","coordinate":{"lat":"12.1713018","lng":"46.7382384"}},{"nome":"Villandro/Villanders","codice":"021114","codiceCatastale":"L971","regione":"trentino alto adige","provincia":"bolzano","cap":"39043","coordinate":{"lat":"11.53708","lng":"46.63082"}},{"nome":"Ville d'Anaunia","codice":"022249","codiceCatastale":"M363","regione":"trentino alto adige","provincia":"trento","cap":"38019","coordinate":{"lat":"11.05","lng":"46.316666666"}},{"nome":"Ville di Fiemme","codice":"022254","codiceCatastale":"M431","regione":"trentino alto adige","provincia":"trento","cap":"38099","coordinate":{"lat":"11.4478","lng":"46.3007"}},{"nome":"Vipiteno/Sterzing","codice":"021115","codiceCatastale":"M067","regione":"trentino alto adige","provincia":"bolzano","cap":"39049","coordinate":{"lat":"11.42961","lng":"46.89313"}},{"nome":"Volano","codice":"022224","codiceCatastale":"M113","regione":"trentino alto adige","provincia":"trento","cap":"38060","coordinate":{"lat":"11.06351","lng":"45.91718"}},{"nome":"Ziano di Fiemme","codice":"022226","codiceCatastale":"M173","regione":"trentino alto adige","provincia":"trento","cap":"38030","coordinate":{"lat":"11.561278055","lng":"46.286445"}}]